[{"name":"Shoshone","city":"Falköping","address":"4 Jenifer Crossing","longitude":13.5187927,"latitude":58.078572,"description":"Integer aliquet, massa id lobortis convallis, tortor risus dapibus augue, vel accumsan tellus nisi eu orci. Mauris lacinia sapien quis libero. Nullam sit amet turpis elementum ligula vehicula consequat. Morbi a ipsum. Integer a nibh."},
{"name":"Northview","city":"Jargalant","address":"3232 Cherokee Plaza","longitude":100.7724281,"latitude":48.7277622,"description":"Nam dui. Proin leo odio, porttitor id, consequat in, consequat ut, nulla. Sed accumsan felis. Ut at dolor quis odio consequat varius. Integer ac leo."},
{"name":"Grasskamp","city":"Qinggis Han","address":"6 Fallview Court","longitude":122.831186,"latitude":47.747102,"description":"Curabitur convallis. Duis consequat dui nec nisi volutpat eleifend. Donec ut dolor. Morbi vel lectus in quam fringilla rhoncus. Mauris enim leo, rhoncus sed, vestibulum sit amet, cursus id, turpis."},
{"name":"Swallow","city":"Chitungwiza","address":"694 Duke Alley","longitude":31.067907,"latitude":-18.0197815,"description":"Duis at velit eu est congue elementum. In hac habitasse platea dictumst. Morbi vestibulum, velit id pretium iaculis, diam erat fermentum justo, nec condimentum neque sapien placerat ante. Nulla justo. Aliquam quis turpis eget elit sodales scelerisque."},
{"name":"Barnett","city":"Krimpen aan den IJssel","address":"40024 Melby Crossing","longitude":4.616419,"latitude":51.924574,"description":"Phasellus in felis. Donec semper sapien a libero. Nam dui. Proin leo odio, porttitor id, consequat in, consequat ut, nulla. Sed accumsan felis."},
{"name":"Springview","city":"Pedraza La Vieja","address":"04 Pond Center","longitude":-71.0601767,"latitude":7.9180075,"description":"Nulla ut erat id mauris vulputate elementum. Nullam varius. Nulla facilisi. Cras non velit nec nisi vulputate nonummy. Maecenas tincidunt lacus at velit."},
{"name":"Haas","city":"Pagnag","address":"820 Laurel Junction","longitude":91.677053,"latitude":32.265208,"description":"Praesent id massa id nisl venenatis lacinia. Aenean sit amet justo. Morbi ut odio. Cras mi pede, malesuada in, imperdiet et, commodo vulputate, justo. In blandit ultrices enim."},
{"name":"Corscot","city":"Zhongping","address":"6986 Magdeline Terrace","longitude":107.762268,"latitude":31.904326,"description":"Duis ac nibh. Fusce lacus purus, aliquet at, feugiat non, pretium quis, lectus. Suspendisse potenti. In eleifend quam a odio. In hac habitasse platea dictumst."},
{"name":"Jenifer","city":"Tempaling","address":"46392 Old Gate Crossing","longitude":111.4484559,"latitude":-6.7745272,"description":"Aliquam augue quam, sollicitudin vitae, consectetuer eget, rutrum at, lorem. Integer tincidunt ante vel ipsum. Praesent blandit lacinia erat. Vestibulum sed magna at nunc commodo placerat. Praesent blandit."},
{"name":"Roxbury","city":"Bor","address":"920 Gina Lane","longitude":31.5655424,"latitude":6.2132663,"description":"Integer a nibh. In quis justo. Maecenas rhoncus aliquam lacus. Morbi quis tortor id nulla ultrices aliquet. Maecenas leo odio, condimentum id, luctus nec, molestie sed, justo."},
{"name":"Darwin","city":"Soutelo","address":"68 Armistice Place","longitude":-8.7261408,"latitude":41.5237953,"description":"Aenean lectus. Pellentesque eget nunc. Donec quis orci eget orci vehicula condimentum. Curabitur in libero ut massa volutpat convallis. Morbi odio odio, elementum eu, interdum eu, tincidunt in, leo."},
{"name":"Thierer","city":"Bryansk","address":"670 Dottie Way","longitude":34.374358,"latitude":53.3249623,"description":"Vivamus vel nulla eget eros elementum pellentesque. Quisque porta volutpat erat. Quisque erat eros, viverra eget, congue eget, semper rutrum, nulla. Nunc purus. Phasellus in felis."},
{"name":"Southridge","city":"Tyczyn","address":"223 Fordem Junction","longitude":22.0339385,"latitude":49.9638636,"description":"Sed accumsan felis. Ut at dolor quis odio consequat varius. Integer ac leo. Pellentesque ultrices mattis odio. Donec vitae nisi."},
{"name":"Hoepker","city":"Chepes","address":"7 Northfield Avenue","longitude":-68.0772116,"latitude":-38.9770913,"description":"Etiam pretium iaculis justo. In hac habitasse platea dictumst. Etiam faucibus cursus urna. Ut tellus. Nulla ut erat id mauris vulputate elementum."},
{"name":"Corben","city":"Kohtla-Järve","address":"35037 Springview Road","longitude":27.2797506,"latitude":59.3974738,"description":"Donec quis orci eget orci vehicula condimentum. Curabitur in libero ut massa volutpat convallis. Morbi odio odio, elementum eu, interdum eu, tincidunt in, leo. Maecenas pulvinar lobortis est. Phasellus sit amet erat."},
{"name":"Brentwood","city":"Hénin-Beaumont","address":"29 Ridgeway Junction","longitude":2.801236,"latitude":50.3171905,"description":"Nulla neque libero, convallis eget, eleifend luctus, ultricies eu, nibh. Quisque id justo sit amet sapien dignissim vestibulum. Vestibulum ante ipsum primis in faucibus orci luctus et ultrices posuere cubilia Curae; Nulla dapibus dolor vel est. Donec odio justo, sollicitudin ut, suscipit a, feugiat et, eros. Vestibulum ac est lacinia nisi venenatis tristique."},
{"name":"Prairie Rose","city":"Xiaohe","address":"4323 Straubel Alley","longitude":102.521807,"latitude":35.202503,"description":"Curabitur gravida nisi at nibh. In hac habitasse platea dictumst. Aliquam augue quam, sollicitudin vitae, consectetuer eget, rutrum at, lorem. Integer tincidunt ante vel ipsum. Praesent blandit lacinia erat."},
{"name":"Chinook","city":"Da’an","address":"08068 Stuart Pass","longitude":124.292626,"latitude":45.506995,"description":"In quis justo. Maecenas rhoncus aliquam lacus. Morbi quis tortor id nulla ultrices aliquet. Maecenas leo odio, condimentum id, luctus nec, molestie sed, justo. Pellentesque viverra pede ac diam."},
{"name":"Alpine","city":"Lavandeira","address":"04 Roxbury Alley","longitude":-8.3742728,"latitude":41.9867326,"description":"Donec odio justo, sollicitudin ut, suscipit a, feugiat et, eros. Vestibulum ac est lacinia nisi venenatis tristique. Fusce congue, diam id ornare imperdiet, sapien urna pretium nisl, ut volutpat sapien arcu sed augue. Aliquam erat volutpat. In congue."},
{"name":"Lerdahl","city":"Plottier","address":"2484 Sycamore Avenue","longitude":-68.23127,"latitude":-38.956431,"description":"In hac habitasse platea dictumst. Morbi vestibulum, velit id pretium iaculis, diam erat fermentum justo, nec condimentum neque sapien placerat ante. Nulla justo. Aliquam quis turpis eget elit sodales scelerisque. Mauris sit amet eros."},
{"name":"Eggendart","city":"Santiago","address":"48326 Ryan Park","longitude":-54.8731219,"latitude":-29.1051592,"description":"Sed vel enim sit amet nunc viverra dapibus. Nulla suscipit ligula in lacus. Curabitur at ipsum ac tellus semper interdum. Mauris ullamcorper purus sit amet nulla. Quisque arcu libero, rutrum ac, lobortis vel, dapibus at, diam."},
{"name":"Summit","city":"Valado dos Frades","address":"37198 Sullivan Park","longitude":-9.0301824,"latitude":39.5861006,"description":"Vestibulum ante ipsum primis in faucibus orci luctus et ultrices posuere cubilia Curae; Mauris viverra diam vitae quam. Suspendisse potenti. Nullam porttitor lacus at turpis. Donec posuere metus vitae ipsum. Aliquam non mauris."},
{"name":"Hanover","city":"Ciparasi","address":"1984 Carberry Plaza","longitude":106.3493224,"latitude":-6.6513426,"description":"Duis bibendum, felis sed interdum venenatis, turpis enim blandit mi, in porttitor pede justo eu massa. Donec dapibus. Duis at velit eu est congue elementum. In hac habitasse platea dictumst. Morbi vestibulum, velit id pretium iaculis, diam erat fermentum justo, nec condimentum neque sapien placerat ante."},
{"name":"Maywood","city":"Saint-Jean-de-Braye","address":"10246 Merchant Alley","longitude":1.9638715,"latitude":47.9035673,"description":"Aenean fermentum. Donec ut mauris eget massa tempor convallis. Nulla neque libero, convallis eget, eleifend luctus, ultricies eu, nibh. Quisque id justo sit amet sapien dignissim vestibulum. Vestibulum ante ipsum primis in faucibus orci luctus et ultrices posuere cubilia Curae; Nulla dapibus dolor vel est."},
{"name":"1st","city":"Mogoditshane","address":"155 Merrick Hill","longitude":25.8731407,"latitude":-24.6131407,"description":"Pellentesque ultrices mattis odio. Donec vitae nisi. Nam ultrices, libero non mattis pulvinar, nulla pede ullamcorper augue, a suscipit nulla elit ac nulla. Sed vel enim sit amet nunc viverra dapibus. Nulla suscipit ligula in lacus."},
{"name":"Porter","city":"Dengjiang","address":"19 Holmberg Lane","longitude":111.982232,"latitude":21.857958,"description":"Cras pellentesque volutpat dui. Maecenas tristique, est et tempus semper, est quam pharetra magna, ac consequat metus sapien ut nunc. Vestibulum ante ipsum primis in faucibus orci luctus et ultrices posuere cubilia Curae; Mauris viverra diam vitae quam. Suspendisse potenti. Nullam porttitor lacus at turpis."},
{"name":"Maple","city":"Kralupy nad Vltavou","address":"4369 Express Circle","longitude":14.310645,"latitude":50.2416453,"description":"Aenean lectus. Pellentesque eget nunc. Donec quis orci eget orci vehicula condimentum. Curabitur in libero ut massa volutpat convallis. Morbi odio odio, elementum eu, interdum eu, tincidunt in, leo."},
{"name":"Nova","city":"Dabu","address":"8225 Autumn Leaf Avenue","longitude":116.695195,"latitude":24.347782,"description":"Duis consequat dui nec nisi volutpat eleifend. Donec ut dolor. Morbi vel lectus in quam fringilla rhoncus. Mauris enim leo, rhoncus sed, vestibulum sit amet, cursus id, turpis. Integer aliquet, massa id lobortis convallis, tortor risus dapibus augue, vel accumsan tellus nisi eu orci."},
{"name":"Hooker","city":"Bilje","address":"97 Oneill Trail","longitude":13.6263627,"latitude":45.8899146,"description":"Vestibulum sed magna at nunc commodo placerat. Praesent blandit. Nam nulla. Integer pede justo, lacinia eget, tincidunt eget, tempus vel, pede. Morbi porttitor lorem id ligula."},
{"name":"Buena Vista","city":"Mafa","address":"24 Fordem Way","longitude":127.876503,"latitude":0.125082,"description":"In hac habitasse platea dictumst. Maecenas ut massa quis augue luctus tincidunt. Nulla mollis molestie lorem. Quisque ut erat. Curabitur gravida nisi at nibh."},
{"name":"Tennessee","city":"Daja","address":"09744 Schiller Crossing","longitude":112.906475,"latitude":-7.072846,"description":"Suspendisse potenti. In eleifend quam a odio. In hac habitasse platea dictumst. Maecenas ut massa quis augue luctus tincidunt. Nulla mollis molestie lorem."},
{"name":"Glacier Hill","city":"Sufang","address":"00532 Canary Trail","longitude":113.1964636,"latitude":23.0664459,"description":"Curabitur convallis. Duis consequat dui nec nisi volutpat eleifend. Donec ut dolor. Morbi vel lectus in quam fringilla rhoncus. Mauris enim leo, rhoncus sed, vestibulum sit amet, cursus id, turpis."},
{"name":"Schurz","city":"Tampekan","address":"62878 Susan Hill","longitude":114.9739344,"latitude":-8.2010401,"description":"Donec posuere metus vitae ipsum. Aliquam non mauris. Morbi non lectus. Aliquam sit amet diam in magna bibendum imperdiet. Nullam orci pede, venenatis non, sodales sed, tincidunt eu, felis."},
{"name":"Oneill","city":"Biên Hòa","address":"897 Rockefeller Avenue","longitude":106.8426871,"latitude":10.9574128,"description":"Suspendisse potenti. Nullam porttitor lacus at turpis. Donec posuere metus vitae ipsum. Aliquam non mauris. Morbi non lectus."},
{"name":"Ruskin","city":"Jiangdianzi","address":"87794 Jackson Way","longitude":116.456548,"latitude":32.655875,"description":"Sed vel enim sit amet nunc viverra dapibus. Nulla suscipit ligula in lacus. Curabitur at ipsum ac tellus semper interdum. Mauris ullamcorper purus sit amet nulla. Quisque arcu libero, rutrum ac, lobortis vel, dapibus at, diam."},
{"name":"Dwight","city":"Wesoła","address":"51 Gale Street","longitude":21.1718237,"latitude":52.3287247,"description":"Sed vel enim sit amet nunc viverra dapibus. Nulla suscipit ligula in lacus. Curabitur at ipsum ac tellus semper interdum. Mauris ullamcorper purus sit amet nulla. Quisque arcu libero, rutrum ac, lobortis vel, dapibus at, diam."},
{"name":"Pawling","city":"Sinfra","address":"93589 Graceland Trail","longitude":-5.9145568,"latitude":6.6233371,"description":"Morbi vestibulum, velit id pretium iaculis, diam erat fermentum justo, nec condimentum neque sapien placerat ante. Nulla justo. Aliquam quis turpis eget elit sodales scelerisque. Mauris sit amet eros. Suspendisse accumsan tortor quis turpis."},
{"name":"Hoepker","city":"Yauca","address":"028 Little Fleur Center","longitude":-74.536774,"latitude":-15.67164,"description":"Mauris sit amet eros. Suspendisse accumsan tortor quis turpis. Sed ante. Vivamus tortor. Duis mattis egestas metus."},
{"name":"Arapahoe","city":"El Bauga","address":"1097 Armistice Terrace","longitude":33.90812,"latitude":18.26196,"description":"In hac habitasse platea dictumst. Morbi vestibulum, velit id pretium iaculis, diam erat fermentum justo, nec condimentum neque sapien placerat ante. Nulla justo. Aliquam quis turpis eget elit sodales scelerisque. Mauris sit amet eros."},
{"name":"Fisk","city":"Linmansangan","address":"1219 Michigan Pass","longitude":119.9874642,"latitude":16.0684136,"description":"Etiam faucibus cursus urna. Ut tellus. Nulla ut erat id mauris vulputate elementum. Nullam varius. Nulla facilisi."},
{"name":"Anthes","city":"Sosnovka","address":"16875 Marcy Lane","longitude":33.2921685,"latitude":54.1347287,"description":"Morbi quis tortor id nulla ultrices aliquet. Maecenas leo odio, condimentum id, luctus nec, molestie sed, justo. Pellentesque viverra pede ac diam. Cras pellentesque volutpat dui. Maecenas tristique, est et tempus semper, est quam pharetra magna, ac consequat metus sapien ut nunc."},
{"name":"Debs","city":"Yangjiao","address":"31 Ridgeview Trail","longitude":116.809657,"latitude":39.944315,"description":"Integer tincidunt ante vel ipsum. Praesent blandit lacinia erat. Vestibulum sed magna at nunc commodo placerat. Praesent blandit. Nam nulla."},
{"name":"Westridge","city":"Dehang","address":"35 Elgar Parkway","longitude":107.220298,"latitude":24.754346,"description":"Duis mattis egestas metus. Aenean fermentum. Donec ut mauris eget massa tempor convallis. Nulla neque libero, convallis eget, eleifend luctus, ultricies eu, nibh. Quisque id justo sit amet sapien dignissim vestibulum."},
{"name":"Holy Cross","city":"Baoshan","address":"663 Jay Plaza","longitude":99.161761,"latitude":25.112046,"description":"Morbi non quam nec dui luctus rutrum. Nulla tellus. In sagittis dui vel nisl. Duis ac nibh. Fusce lacus purus, aliquet at, feugiat non, pretium quis, lectus."},
{"name":"Transport","city":"Murcki","address":"5 Evergreen Road","longitude":19.0197207,"latitude":50.2036798,"description":"Proin interdum mauris non ligula pellentesque ultrices. Phasellus id sapien in sapien iaculis congue. Vivamus metus arcu, adipiscing molestie, hendrerit at, vulputate vitae, nisl. Aenean lectus. Pellentesque eget nunc."},
{"name":"Kropf","city":"Singgugu","address":"17889 Hayes Place","longitude":108.3549,"latitude":-7.1398,"description":"Mauris sit amet eros. Suspendisse accumsan tortor quis turpis. Sed ante. Vivamus tortor. Duis mattis egestas metus."},
{"name":"Londonderry","city":"Renhe","address":"9173 Nova Park","longitude":101.738528,"latitude":26.497765,"description":"Maecenas tincidunt lacus at velit. Vivamus vel nulla eget eros elementum pellentesque. Quisque porta volutpat erat. Quisque erat eros, viverra eget, congue eget, semper rutrum, nulla. Nunc purus."},
{"name":"2nd","city":"Tutut","address":"9638 Anhalt Crossing","longitude":96.128731,"latitude":4.509193,"description":"Integer aliquet, massa id lobortis convallis, tortor risus dapibus augue, vel accumsan tellus nisi eu orci. Mauris lacinia sapien quis libero. Nullam sit amet turpis elementum ligula vehicula consequat. Morbi a ipsum. Integer a nibh."},
{"name":"Cambridge","city":"Gonça","address":"9880 Trailsway Court","longitude":-8.2522306,"latitude":41.5088439,"description":"In est risus, auctor sed, tristique in, tempus sit amet, sem. Fusce consequat. Nulla nisl. Nunc nisl. Duis bibendum, felis sed interdum venenatis, turpis enim blandit mi, in porttitor pede justo eu massa."},
{"name":"Oakridge","city":"Qiandeng","address":"9893 Jenna Park","longitude":121.004054,"latitude":31.268047,"description":"Quisque ut erat. Curabitur gravida nisi at nibh. In hac habitasse platea dictumst. Aliquam augue quam, sollicitudin vitae, consectetuer eget, rutrum at, lorem. Integer tincidunt ante vel ipsum."},
{"name":"International","city":"Taizhou","address":"161 4th Circle","longitude":121.42076,"latitude":28.65638,"description":"Nulla ac enim. In tempor, turpis nec euismod scelerisque, quam turpis adipiscing lorem, vitae mattis nibh ligula nec sem. Duis aliquam convallis nunc. Proin at turpis a pede posuere nonummy. Integer non velit."},
{"name":"Monterey","city":"Suruhwadang","address":"9 Monument Hill","longitude":112.1012912,"latitude":-8.2012757,"description":"Donec ut dolor. Morbi vel lectus in quam fringilla rhoncus. Mauris enim leo, rhoncus sed, vestibulum sit amet, cursus id, turpis. Integer aliquet, massa id lobortis convallis, tortor risus dapibus augue, vel accumsan tellus nisi eu orci. Mauris lacinia sapien quis libero."},
{"name":"Rutledge","city":"Bowang","address":"0 Bluejay Hill","longitude":118.844538,"latitude":31.558471,"description":"Maecenas leo odio, condimentum id, luctus nec, molestie sed, justo. Pellentesque viverra pede ac diam. Cras pellentesque volutpat dui. Maecenas tristique, est et tempus semper, est quam pharetra magna, ac consequat metus sapien ut nunc. Vestibulum ante ipsum primis in faucibus orci luctus et ultrices posuere cubilia Curae; Mauris viverra diam vitae quam."},
{"name":"Schmedeman","city":"Skelleftehamn","address":"3 Graceland Hill","longitude":21.242165,"latitude":64.6789618,"description":"Morbi porttitor lorem id ligula. Suspendisse ornare consequat lectus. In est risus, auctor sed, tristique in, tempus sit amet, sem. Fusce consequat. Nulla nisl."},
{"name":"Eggendart","city":"Lapa do Lobo","address":"6 Graedel Street","longitude":-7.9185148,"latitude":40.4709245,"description":"Etiam pretium iaculis justo. In hac habitasse platea dictumst. Etiam faucibus cursus urna. Ut tellus. Nulla ut erat id mauris vulputate elementum."},
{"name":"Swallow","city":"Örnsköldsvik","address":"0 Ridgeview Center","longitude":18.679327,"latitude":63.296708,"description":"Suspendisse potenti. Nullam porttitor lacus at turpis. Donec posuere metus vitae ipsum. Aliquam non mauris. Morbi non lectus."},
{"name":"Crowley","city":"Yanhu","address":"5 Mccormick Center","longitude":110.998272,"latitude":35.015101,"description":"Nulla tempus. Vivamus in felis eu sapien cursus vestibulum. Proin eu mi. Nulla ac enim. In tempor, turpis nec euismod scelerisque, quam turpis adipiscing lorem, vitae mattis nibh ligula nec sem."},
{"name":"Buhler","city":"Pirapozinho","address":"24 Arizona Avenue","longitude":-51.5002318,"latitude":-22.2756953,"description":"Etiam faucibus cursus urna. Ut tellus. Nulla ut erat id mauris vulputate elementum. Nullam varius. Nulla facilisi."},
{"name":"Haas","city":"Zhuyeping","address":"016 Lindbergh Trail","longitude":110.5437982,"latitude":29.4724425,"description":"Nam nulla. Integer pede justo, lacinia eget, tincidunt eget, tempus vel, pede. Morbi porttitor lorem id ligula. Suspendisse ornare consequat lectus. In est risus, auctor sed, tristique in, tempus sit amet, sem."},
{"name":"Sunfield","city":"Butiama","address":"1 Magdeline Alley","longitude":33.9694276,"latitude":-1.7669836,"description":"Maecenas tristique, est et tempus semper, est quam pharetra magna, ac consequat metus sapien ut nunc. Vestibulum ante ipsum primis in faucibus orci luctus et ultrices posuere cubilia Curae; Mauris viverra diam vitae quam. Suspendisse potenti. Nullam porttitor lacus at turpis. Donec posuere metus vitae ipsum."},
{"name":"Dryden","city":"Ostrów Lubelski","address":"1242 Dixon Junction","longitude":22.8528812,"latitude":51.4938767,"description":"Vivamus in felis eu sapien cursus vestibulum. Proin eu mi. Nulla ac enim. In tempor, turpis nec euismod scelerisque, quam turpis adipiscing lorem, vitae mattis nibh ligula nec sem. Duis aliquam convallis nunc."},
{"name":"Carpenter","city":"Cisiih","address":"11 Merrick Place","longitude":106.3011265,"latitude":-6.7654881,"description":"Aliquam erat volutpat. In congue. Etiam justo. Etiam pretium iaculis justo. In hac habitasse platea dictumst."},
{"name":"Beilfuss","city":"Lincheng","address":"2276 Morrow Junction","longitude":114.498761,"latitude":37.444498,"description":"Praesent id massa id nisl venenatis lacinia. Aenean sit amet justo. Morbi ut odio. Cras mi pede, malesuada in, imperdiet et, commodo vulputate, justo. In blandit ultrices enim."},
{"name":"Lien","city":"Nueva Requena","address":"07 Hanson Road","longitude":-74.562548,"latitude":-8.334487,"description":"Nulla tellus. In sagittis dui vel nisl. Duis ac nibh. Fusce lacus purus, aliquet at, feugiat non, pretium quis, lectus. Suspendisse potenti."},
{"name":"Ryan","city":"Alexandria","address":"680 Londonderry Circle","longitude":29.9187387,"latitude":31.2000924,"description":"Morbi quis tortor id nulla ultrices aliquet. Maecenas leo odio, condimentum id, luctus nec, molestie sed, justo. Pellentesque viverra pede ac diam. Cras pellentesque volutpat dui. Maecenas tristique, est et tempus semper, est quam pharetra magna, ac consequat metus sapien ut nunc."},
{"name":"Meadow Valley","city":"Iiyama","address":"328 Lindbergh Point","longitude":138.3628039,"latitude":36.8517527,"description":"Quisque erat eros, viverra eget, congue eget, semper rutrum, nulla. Nunc purus. Phasellus in felis. Donec semper sapien a libero. Nam dui."},
{"name":"Paget","city":"Ust’-Donetskiy","address":"69 Sugar Alley","longitude":40.8758403,"latitude":47.6420762,"description":"Sed accumsan felis. Ut at dolor quis odio consequat varius. Integer ac leo. Pellentesque ultrices mattis odio. Donec vitae nisi."},
{"name":"Milwaukee","city":"Češinovo","address":"699 Transport Trail","longitude":22.28961,"latitude":41.87148,"description":"Nulla mollis molestie lorem. Quisque ut erat. Curabitur gravida nisi at nibh. In hac habitasse platea dictumst. Aliquam augue quam, sollicitudin vitae, consectetuer eget, rutrum at, lorem."},
{"name":"Division","city":"Bijia","address":"0820 Prairie Rose Avenue","longitude":105.291643,"latitude":27.283955,"description":"Pellentesque ultrices mattis odio. Donec vitae nisi. Nam ultrices, libero non mattis pulvinar, nulla pede ullamcorper augue, a suscipit nulla elit ac nulla. Sed vel enim sit amet nunc viverra dapibus. Nulla suscipit ligula in lacus."},
{"name":"Oak Valley","city":"Seroa","address":"7 Heffernan Road","longitude":-8.4347858,"latitude":41.2606416,"description":"Suspendisse potenti. Cras in purus eu magna vulputate luctus. Cum sociis natoque penatibus et magnis dis parturient montes, nascetur ridiculus mus. Vivamus vestibulum sagittis sapien. Cum sociis natoque penatibus et magnis dis parturient montes, nascetur ridiculus mus."},
{"name":"Carberry","city":"Sibubuhan","address":"5 Surrey Road","longitude":99.734444,"latitude":1.0673379,"description":"Sed vel enim sit amet nunc viverra dapibus. Nulla suscipit ligula in lacus. Curabitur at ipsum ac tellus semper interdum. Mauris ullamcorper purus sit amet nulla. Quisque arcu libero, rutrum ac, lobortis vel, dapibus at, diam."},
{"name":"Scott","city":"Chartres","address":"22 Atwood Road","longitude":-0.6297654,"latitude":45.106849,"description":"Integer tincidunt ante vel ipsum. Praesent blandit lacinia erat. Vestibulum sed magna at nunc commodo placerat. Praesent blandit. Nam nulla."},
{"name":"Fordem","city":"Kabba","address":"691 Esch Park","longitude":6.0732146,"latitude":7.8231145,"description":"Aenean fermentum. Donec ut mauris eget massa tempor convallis. Nulla neque libero, convallis eget, eleifend luctus, ultricies eu, nibh. Quisque id justo sit amet sapien dignissim vestibulum. Vestibulum ante ipsum primis in faucibus orci luctus et ultrices posuere cubilia Curae; Nulla dapibus dolor vel est."},
{"name":"Tony","city":"Płoniawy-Bramura","address":"86 Oxford Plaza","longitude":21.0954627,"latitude":52.959496,"description":"Pellentesque at nulla. Suspendisse potenti. Cras in purus eu magna vulputate luctus. Cum sociis natoque penatibus et magnis dis parturient montes, nascetur ridiculus mus. Vivamus vestibulum sagittis sapien."},
{"name":"Pierstorff","city":"Kurume","address":"8 Carpenter Circle","longitude":140.3460747,"latitude":37.3785618,"description":"Nulla ac enim. In tempor, turpis nec euismod scelerisque, quam turpis adipiscing lorem, vitae mattis nibh ligula nec sem. Duis aliquam convallis nunc. Proin at turpis a pede posuere nonummy. Integer non velit."},
{"name":"Orin","city":"Oral","address":"49270 Sunbrook Circle","longitude":51.3865431,"latitude":51.227821,"description":"Fusce consequat. Nulla nisl. Nunc nisl. Duis bibendum, felis sed interdum venenatis, turpis enim blandit mi, in porttitor pede justo eu massa. Donec dapibus."},
{"name":"Dwight","city":"Brits","address":"5 Novick Avenue","longitude":27.6889503,"latitude":-25.1598678,"description":"Curabitur gravida nisi at nibh. In hac habitasse platea dictumst. Aliquam augue quam, sollicitudin vitae, consectetuer eget, rutrum at, lorem. Integer tincidunt ante vel ipsum. Praesent blandit lacinia erat."},
{"name":"Talisman","city":"Gonghe","address":"1109 American Parkway","longitude":100.620031,"latitude":36.284107,"description":"Proin eu mi. Nulla ac enim. In tempor, turpis nec euismod scelerisque, quam turpis adipiscing lorem, vitae mattis nibh ligula nec sem. Duis aliquam convallis nunc. Proin at turpis a pede posuere nonummy."},
{"name":"Quincy","city":"Dugulubgey","address":"4 Loeprich Place","longitude":43.5192652,"latitude":43.6865336,"description":"Donec odio justo, sollicitudin ut, suscipit a, feugiat et, eros. Vestibulum ac est lacinia nisi venenatis tristique. Fusce congue, diam id ornare imperdiet, sapien urna pretium nisl, ut volutpat sapien arcu sed augue. Aliquam erat volutpat. In congue."},
{"name":"Sommers","city":"Shamakhi","address":"380 Rigney Plaza","longitude":48.6363801,"latitude":40.6318731,"description":"Morbi vestibulum, velit id pretium iaculis, diam erat fermentum justo, nec condimentum neque sapien placerat ante. Nulla justo. Aliquam quis turpis eget elit sodales scelerisque. Mauris sit amet eros. Suspendisse accumsan tortor quis turpis."},
{"name":"Russell","city":"Talospatang","address":"54 Graedel Court","longitude":120.4495523,"latitude":15.9074577,"description":"Nullam sit amet turpis elementum ligula vehicula consequat. Morbi a ipsum. Integer a nibh. In quis justo. Maecenas rhoncus aliquam lacus."},
{"name":"Pawling","city":"Rat Burana","address":"6149 Reinke Street","longitude":100.5014909,"latitude":13.6730341,"description":"Curabitur in libero ut massa volutpat convallis. Morbi odio odio, elementum eu, interdum eu, tincidunt in, leo. Maecenas pulvinar lobortis est. Phasellus sit amet erat. Nulla tempus."},
{"name":"Golf","city":"Tres Isletas","address":"4730 Logan Street","longitude":-60.4304186,"latitude":-26.3374785,"description":"Nullam porttitor lacus at turpis. Donec posuere metus vitae ipsum. Aliquam non mauris. Morbi non lectus. Aliquam sit amet diam in magna bibendum imperdiet."},
{"name":"Kensington","city":"Singgugu","address":"64691 Emmet Park","longitude":108.3549,"latitude":-7.1398,"description":"Aenean sit amet justo. Morbi ut odio. Cras mi pede, malesuada in, imperdiet et, commodo vulputate, justo. In blandit ultrices enim. Lorem ipsum dolor sit amet, consectetuer adipiscing elit."},
{"name":"Menomonie","city":"Ibirité","address":"8416 Kinsman Terrace","longitude":-44.0572964,"latitude":-20.0256695,"description":"Vestibulum ac est lacinia nisi venenatis tristique. Fusce congue, diam id ornare imperdiet, sapien urna pretium nisl, ut volutpat sapien arcu sed augue. Aliquam erat volutpat. In congue. Etiam justo."},
{"name":"Clemons","city":"Dabaozi","address":"0 Thierer Point","longitude":116.504048,"latitude":39.8007621,"description":"Mauris lacinia sapien quis libero. Nullam sit amet turpis elementum ligula vehicula consequat. Morbi a ipsum. Integer a nibh. In quis justo."},
{"name":"Farragut","city":"La Cruz","address":"9898 Westend Court","longitude":-58.6057651,"latitude":-34.3998126,"description":"Etiam justo. Etiam pretium iaculis justo. In hac habitasse platea dictumst. Etiam faucibus cursus urna. Ut tellus."},
{"name":"Pond","city":"Suna","address":"657 Glendale Place","longitude":50.0688474,"latitude":57.8308498,"description":"Etiam faucibus cursus urna. Ut tellus. Nulla ut erat id mauris vulputate elementum. Nullam varius. Nulla facilisi."},
{"name":"Forster","city":"Maunuri","address":"123 Center Drive","longitude":121.2806,"latitude":-8.8899,"description":"Nulla tempus. Vivamus in felis eu sapien cursus vestibulum. Proin eu mi. Nulla ac enim. In tempor, turpis nec euismod scelerisque, quam turpis adipiscing lorem, vitae mattis nibh ligula nec sem."},
{"name":"Union","city":"Srabah","address":"6038 Rusk Center","longitude":111.7048262,"latitude":-7.9955024,"description":"Aenean lectus. Pellentesque eget nunc. Donec quis orci eget orci vehicula condimentum. Curabitur in libero ut massa volutpat convallis. Morbi odio odio, elementum eu, interdum eu, tincidunt in, leo."},
{"name":"La Follette","city":"Ampelgading","address":"1532 Hoepker Road","longitude":109.491356,"latitude":-6.9498767,"description":"Donec dapibus. Duis at velit eu est congue elementum. In hac habitasse platea dictumst. Morbi vestibulum, velit id pretium iaculis, diam erat fermentum justo, nec condimentum neque sapien placerat ante. Nulla justo."},
{"name":"Anzinger","city":"Tsákoi","address":"801 Mockingbird Circle","longitude":22.0383248,"latitude":40.9556823,"description":"In tempor, turpis nec euismod scelerisque, quam turpis adipiscing lorem, vitae mattis nibh ligula nec sem. Duis aliquam convallis nunc. Proin at turpis a pede posuere nonummy. Integer non velit. Donec diam neque, vestibulum eget, vulputate ut, ultrices vel, augue."},
{"name":"Truax","city":"Pertunmaa","address":"96 Alpine Way","longitude":26.4821156,"latitude":61.5071877,"description":"Vestibulum ante ipsum primis in faucibus orci luctus et ultrices posuere cubilia Curae; Nulla dapibus dolor vel est. Donec odio justo, sollicitudin ut, suscipit a, feugiat et, eros. Vestibulum ac est lacinia nisi venenatis tristique. Fusce congue, diam id ornare imperdiet, sapien urna pretium nisl, ut volutpat sapien arcu sed augue. Aliquam erat volutpat."},
{"name":"Linden","city":"Guali","address":"28481 Forest Run Road","longitude":110.179953,"latitude":25.234479,"description":"Etiam justo. Etiam pretium iaculis justo. In hac habitasse platea dictumst. Etiam faucibus cursus urna. Ut tellus."},
{"name":"Jenna","city":"Lopar","address":"1 Knutson Crossing","longitude":14.7318165,"latitude":44.8278003,"description":"Quisque porta volutpat erat. Quisque erat eros, viverra eget, congue eget, semper rutrum, nulla. Nunc purus. Phasellus in felis. Donec semper sapien a libero."},
{"name":"Prairie Rose","city":"Tangwang","address":"50596 La Follette Center","longitude":6.7866433,"latitude":51.2262018,"description":"Donec posuere metus vitae ipsum. Aliquam non mauris. Morbi non lectus. Aliquam sit amet diam in magna bibendum imperdiet. Nullam orci pede, venenatis non, sodales sed, tincidunt eu, felis."},
{"name":"Grim","city":"Oss","address":"8528 Moland Trail","longitude":5.5510411,"latitude":51.7610501,"description":"Morbi non lectus. Aliquam sit amet diam in magna bibendum imperdiet. Nullam orci pede, venenatis non, sodales sed, tincidunt eu, felis. Fusce posuere felis sed lacus. Morbi sem mauris, laoreet ut, rhoncus aliquet, pulvinar sed, nisl."},
{"name":"Stephen","city":"Machida","address":"36 Granby Point","longitude":139.8670624,"latitude":37.6453583,"description":"In sagittis dui vel nisl. Duis ac nibh. Fusce lacus purus, aliquet at, feugiat non, pretium quis, lectus. Suspendisse potenti. In eleifend quam a odio."},
{"name":"Service","city":"Duraykīsh","address":"63 Wayridge Circle","longitude":36.1355295,"latitude":34.8951038,"description":"Suspendisse ornare consequat lectus. In est risus, auctor sed, tristique in, tempus sit amet, sem. Fusce consequat. Nulla nisl. Nunc nisl."},
{"name":"Lake View","city":"Boro Utara","address":"249 Bunker Hill Crossing","longitude":111.913497,"latitude":-8.0095874,"description":"Donec diam neque, vestibulum eget, vulputate ut, ultrices vel, augue. Vestibulum ante ipsum primis in faucibus orci luctus et ultrices posuere cubilia Curae; Donec pharetra, magna vestibulum aliquet ultrices, erat tortor sollicitudin mi, sit amet lobortis sapien sapien non mi. Integer ac neque. Duis bibendum. Morbi non quam nec dui luctus rutrum."},
{"name":"Parkside","city":"Loo","address":"534 Marquette Lane","longitude":24.9466284,"latitude":59.4342152,"description":"Suspendisse potenti. Nullam porttitor lacus at turpis. Donec posuere metus vitae ipsum. Aliquam non mauris. Morbi non lectus."},
{"name":"Boyd","city":"Cantapoy","address":"1655 Hovde Pass","longitude":125.423119,"latitude":9.575985,"description":"Nulla ut erat id mauris vulputate elementum. Nullam varius. Nulla facilisi. Cras non velit nec nisi vulputate nonummy. Maecenas tincidunt lacus at velit."},
{"name":"Derek","city":"Cunén","address":"3 Morningstar Alley","longitude":-91.0268638,"latitude":15.3376191,"description":"Integer ac leo. Pellentesque ultrices mattis odio. Donec vitae nisi. Nam ultrices, libero non mattis pulvinar, nulla pede ullamcorper augue, a suscipit nulla elit ac nulla. Sed vel enim sit amet nunc viverra dapibus."},
{"name":"Eliot","city":"Surkh Bilandī","address":"157 Lakewood Gardens Court","longitude":69.02863,"latitude":34.68474,"description":"Nunc rhoncus dui vel sem. Sed sagittis. Nam congue, risus semper porta volutpat, quam pede lobortis ligula, sit amet eleifend pede libero quis orci. Nullam molestie nibh in lectus. Pellentesque at nulla."},
{"name":"Fairview","city":"Bang Mun Nak","address":"12646 Evergreen Alley","longitude":100.417181,"latitude":16.0213558,"description":"Integer non velit. Donec diam neque, vestibulum eget, vulputate ut, ultrices vel, augue. Vestibulum ante ipsum primis in faucibus orci luctus et ultrices posuere cubilia Curae; Donec pharetra, magna vestibulum aliquet ultrices, erat tortor sollicitudin mi, sit amet lobortis sapien sapien non mi. Integer ac neque. Duis bibendum."},
{"name":"West","city":"Pasrūr","address":"9610 Scofield Junction","longitude":74.5809328,"latitude":32.4322509,"description":"Nunc purus. Phasellus in felis. Donec semper sapien a libero. Nam dui. Proin leo odio, porttitor id, consequat in, consequat ut, nulla."},
{"name":"North","city":"Encontrados","address":"910 Oneill Road","longitude":-72.233418,"latitude":9.0578504,"description":"Nunc rhoncus dui vel sem. Sed sagittis. Nam congue, risus semper porta volutpat, quam pede lobortis ligula, sit amet eleifend pede libero quis orci. Nullam molestie nibh in lectus. Pellentesque at nulla."},
{"name":"Green Ridge","city":"Fraga","address":"7836 Mesta Street","longitude":-8.2053479,"latitude":41.136319,"description":"Mauris enim leo, rhoncus sed, vestibulum sit amet, cursus id, turpis. Integer aliquet, massa id lobortis convallis, tortor risus dapibus augue, vel accumsan tellus nisi eu orci. Mauris lacinia sapien quis libero. Nullam sit amet turpis elementum ligula vehicula consequat. Morbi a ipsum."},
{"name":"Katie","city":"Pantukan","address":"202 Clemons Court","longitude":125.8973301,"latitude":7.1270158,"description":"Suspendisse potenti. Nullam porttitor lacus at turpis. Donec posuere metus vitae ipsum. Aliquam non mauris. Morbi non lectus."},
{"name":"Oakridge","city":"Banjar Bongangede","address":"90 Pawling Pass","longitude":115.1159883,"latitude":-8.601207,"description":"Nulla tellus. In sagittis dui vel nisl. Duis ac nibh. Fusce lacus purus, aliquet at, feugiat non, pretium quis, lectus. Suspendisse potenti."},
{"name":"Westridge","city":"Roshchino","address":"2048 Logan Circle","longitude":20.3700368,"latitude":54.9257823,"description":"Cras pellentesque volutpat dui. Maecenas tristique, est et tempus semper, est quam pharetra magna, ac consequat metus sapien ut nunc. Vestibulum ante ipsum primis in faucibus orci luctus et ultrices posuere cubilia Curae; Mauris viverra diam vitae quam. Suspendisse potenti. Nullam porttitor lacus at turpis."},
{"name":"Scott","city":"Zhouwang","address":"08086 Manitowish Alley","longitude":102.6293927,"latitude":37.9331181,"description":"Lorem ipsum dolor sit amet, consectetuer adipiscing elit. Proin interdum mauris non ligula pellentesque ultrices. Phasellus id sapien in sapien iaculis congue. Vivamus metus arcu, adipiscing molestie, hendrerit at, vulputate vitae, nisl. Aenean lectus."},
{"name":"Del Mar","city":"Shucheng Chengguanzhen","address":"2710 Main Hill","longitude":116.952766,"latitude":31.466526,"description":"Quisque porta volutpat erat. Quisque erat eros, viverra eget, congue eget, semper rutrum, nulla. Nunc purus. Phasellus in felis. Donec semper sapien a libero."},
{"name":"Northfield","city":"Aguisan","address":"8 Anderson Center","longitude":122.890937,"latitude":10.1765144,"description":"Vestibulum rutrum rutrum neque. Aenean auctor gravida sem. Praesent id massa id nisl venenatis lacinia. Aenean sit amet justo. Morbi ut odio."},
{"name":"Petterle","city":"Cubará","address":"4461 Graceland Avenue","longitude":-72.189,"latitude":6.8793892,"description":"Suspendisse accumsan tortor quis turpis. Sed ante. Vivamus tortor. Duis mattis egestas metus. Aenean fermentum."},
{"name":"Raven","city":"Tall Abyaḑ","address":"521 Forster Circle","longitude":38.9511518,"latitude":36.6919385,"description":"Fusce posuere felis sed lacus. Morbi sem mauris, laoreet ut, rhoncus aliquet, pulvinar sed, nisl. Nunc rhoncus dui vel sem. Sed sagittis. Nam congue, risus semper porta volutpat, quam pede lobortis ligula, sit amet eleifend pede libero quis orci."},
{"name":"Ridge Oak","city":"Liuzhou","address":"242 Sunfield Way","longitude":109.428608,"latitude":24.326292,"description":"Morbi odio odio, elementum eu, interdum eu, tincidunt in, leo. Maecenas pulvinar lobortis est. Phasellus sit amet erat. Nulla tempus. Vivamus in felis eu sapien cursus vestibulum."},
{"name":"Troy","city":"Trairi","address":"5 Utah Alley","longitude":-39.3621196,"latitude":-3.3072032,"description":"Vivamus vel nulla eget eros elementum pellentesque. Quisque porta volutpat erat. Quisque erat eros, viverra eget, congue eget, semper rutrum, nulla. Nunc purus. Phasellus in felis."},
{"name":"Onsgard","city":"L’vovskiy","address":"17621 Graedel Drive","longitude":47.9992194,"latitude":46.4078031,"description":"Nulla suscipit ligula in lacus. Curabitur at ipsum ac tellus semper interdum. Mauris ullamcorper purus sit amet nulla. Quisque arcu libero, rutrum ac, lobortis vel, dapibus at, diam. Nam tristique tortor eu pede."},
{"name":"Bartillon","city":"Farafangana","address":"088 Bartelt Terrace","longitude":47.818038,"latitude":-22.817412,"description":"Nunc rhoncus dui vel sem. Sed sagittis. Nam congue, risus semper porta volutpat, quam pede lobortis ligula, sit amet eleifend pede libero quis orci. Nullam molestie nibh in lectus. Pellentesque at nulla."},
{"name":"Granby","city":"Agen","address":"698 Helena Terrace","longitude":2.0928189,"latitude":44.2641474,"description":"Integer aliquet, massa id lobortis convallis, tortor risus dapibus augue, vel accumsan tellus nisi eu orci. Mauris lacinia sapien quis libero. Nullam sit amet turpis elementum ligula vehicula consequat. Morbi a ipsum. Integer a nibh."},
{"name":"Maywood","city":"Kuala Lumpur","address":"247 Division Road","longitude":101.7178316,"latitude":3.1523104,"description":"Morbi non lectus. Aliquam sit amet diam in magna bibendum imperdiet. Nullam orci pede, venenatis non, sodales sed, tincidunt eu, felis. Fusce posuere felis sed lacus. Morbi sem mauris, laoreet ut, rhoncus aliquet, pulvinar sed, nisl."},
{"name":"Arizona","city":"Jinrongjie","address":"1057 Blue Bill Park Avenue","longitude":126.7075176,"latitude":45.7873408,"description":"Nulla justo. Aliquam quis turpis eget elit sodales scelerisque. Mauris sit amet eros. Suspendisse accumsan tortor quis turpis. Sed ante."},
{"name":"Bonner","city":"Höshigiyn-Ar","address":"9894 Bartillon Hill","longitude":106.96333,"latitude":47.55717,"description":"Suspendisse potenti. Cras in purus eu magna vulputate luctus. Cum sociis natoque penatibus et magnis dis parturient montes, nascetur ridiculus mus. Vivamus vestibulum sagittis sapien. Cum sociis natoque penatibus et magnis dis parturient montes, nascetur ridiculus mus."},
{"name":"Laurel","city":"Jixing","address":"864 Veith Alley","longitude":120.758543,"latitude":30.753924,"description":"Aenean lectus. Pellentesque eget nunc. Donec quis orci eget orci vehicula condimentum. Curabitur in libero ut massa volutpat convallis. Morbi odio odio, elementum eu, interdum eu, tincidunt in, leo."},
{"name":"Sherman","city":"Nemours","address":"43 Little Fleur Parkway","longitude":2.7122802,"latitude":48.2678882,"description":"In eleifend quam a odio. In hac habitasse platea dictumst. Maecenas ut massa quis augue luctus tincidunt. Nulla mollis molestie lorem. Quisque ut erat."},
{"name":"Barnett","city":"João Alfredo","address":"597 Maple Wood Drive","longitude":-35.5907317,"latitude":-7.8626843,"description":"Maecenas rhoncus aliquam lacus. Morbi quis tortor id nulla ultrices aliquet. Maecenas leo odio, condimentum id, luctus nec, molestie sed, justo. Pellentesque viverra pede ac diam. Cras pellentesque volutpat dui."},
{"name":"Oak Valley","city":"Gaopi","address":"614 Sauthoff Place","longitude":107.751231,"latitude":21.778714,"description":"Curabitur in libero ut massa volutpat convallis. Morbi odio odio, elementum eu, interdum eu, tincidunt in, leo. Maecenas pulvinar lobortis est. Phasellus sit amet erat. Nulla tempus."},
{"name":"Stephen","city":"Liufeng","address":"81 Anhalt Pass","longitude":115.652151,"latitude":22.919228,"description":"Nullam molestie nibh in lectus. Pellentesque at nulla. Suspendisse potenti. Cras in purus eu magna vulputate luctus. Cum sociis natoque penatibus et magnis dis parturient montes, nascetur ridiculus mus."},
{"name":"Bellgrove","city":"Talisay","address":"35324 Manley Way","longitude":121.0130439,"latitude":14.5618599,"description":"Vivamus vel nulla eget eros elementum pellentesque. Quisque porta volutpat erat. Quisque erat eros, viverra eget, congue eget, semper rutrum, nulla. Nunc purus. Phasellus in felis."},
{"name":"Buell","city":"Neebing","address":"417 Carioca Way","longitude":-89.4810715,"latitude":48.1735351,"description":"Duis bibendum, felis sed interdum venenatis, turpis enim blandit mi, in porttitor pede justo eu massa. Donec dapibus. Duis at velit eu est congue elementum. In hac habitasse platea dictumst. Morbi vestibulum, velit id pretium iaculis, diam erat fermentum justo, nec condimentum neque sapien placerat ante."},
{"name":"Miller","city":"Pniv","address":"3 Killdeer Junction","longitude":24.5234182,"latitude":48.6144697,"description":"Praesent blandit lacinia erat. Vestibulum sed magna at nunc commodo placerat. Praesent blandit. Nam nulla. Integer pede justo, lacinia eget, tincidunt eget, tempus vel, pede."},
{"name":"Atwood","city":"Gostynin","address":"9 David Park","longitude":19.4619176,"latitude":52.4293273,"description":"Morbi ut odio. Cras mi pede, malesuada in, imperdiet et, commodo vulputate, justo. In blandit ultrices enim. Lorem ipsum dolor sit amet, consectetuer adipiscing elit. Proin interdum mauris non ligula pellentesque ultrices."},
{"name":"Stephen","city":"Beauvais","address":"916 Sullivan Lane","longitude":2.0887457,"latitude":49.4263976,"description":"Sed sagittis. Nam congue, risus semper porta volutpat, quam pede lobortis ligula, sit amet eleifend pede libero quis orci. Nullam molestie nibh in lectus. Pellentesque at nulla. Suspendisse potenti."},
{"name":"Oriole","city":"Funabashi","address":"8 8th Point","longitude":140.1660258,"latitude":37.9909201,"description":"Quisque id justo sit amet sapien dignissim vestibulum. Vestibulum ante ipsum primis in faucibus orci luctus et ultrices posuere cubilia Curae; Nulla dapibus dolor vel est. Donec odio justo, sollicitudin ut, suscipit a, feugiat et, eros. Vestibulum ac est lacinia nisi venenatis tristique. Fusce congue, diam id ornare imperdiet, sapien urna pretium nisl, ut volutpat sapien arcu sed augue."},
{"name":"Upham","city":"Shāhpur","address":"64713 Fisk Plaza","longitude":75.2071469,"latitude":32.2951394,"description":"Nulla neque libero, convallis eget, eleifend luctus, ultricies eu, nibh. Quisque id justo sit amet sapien dignissim vestibulum. Vestibulum ante ipsum primis in faucibus orci luctus et ultrices posuere cubilia Curae; Nulla dapibus dolor vel est. Donec odio justo, sollicitudin ut, suscipit a, feugiat et, eros. Vestibulum ac est lacinia nisi venenatis tristique."},
{"name":"Sachtjen","city":"Villasis","address":"3043 Homewood Parkway","longitude":120.5878276,"latitude":15.9016405,"description":"Maecenas pulvinar lobortis est. Phasellus sit amet erat. Nulla tempus. Vivamus in felis eu sapien cursus vestibulum. Proin eu mi."},
{"name":"Del Sol","city":"Berezivka","address":"4424 Bluestem Road","longitude":30.9163475,"latitude":47.2038268,"description":"Vestibulum ante ipsum primis in faucibus orci luctus et ultrices posuere cubilia Curae; Duis faucibus accumsan odio. Curabitur convallis. Duis consequat dui nec nisi volutpat eleifend. Donec ut dolor. Morbi vel lectus in quam fringilla rhoncus."},
{"name":"Messerschmidt","city":"Nyrob","address":"13740 Hoffman Parkway","longitude":56.7240294,"latitude":60.7412843,"description":"Nunc rhoncus dui vel sem. Sed sagittis. Nam congue, risus semper porta volutpat, quam pede lobortis ligula, sit amet eleifend pede libero quis orci. Nullam molestie nibh in lectus. Pellentesque at nulla."},
{"name":"Spohn","city":"Pereslavl’-Zalesskiy","address":"540 Old Gate Hill","longitude":38.8533938,"latitude":56.7391033,"description":"Maecenas tristique, est et tempus semper, est quam pharetra magna, ac consequat metus sapien ut nunc. Vestibulum ante ipsum primis in faucibus orci luctus et ultrices posuere cubilia Curae; Mauris viverra diam vitae quam. Suspendisse potenti. Nullam porttitor lacus at turpis. Donec posuere metus vitae ipsum."},
{"name":"Prentice","city":"Hilotongan","address":"9 Autumn Leaf Avenue","longitude":123.6441498,"latitude":11.144989,"description":"Vestibulum quam sapien, varius ut, blandit non, interdum in, ante. Vestibulum ante ipsum primis in faucibus orci luctus et ultrices posuere cubilia Curae; Duis faucibus accumsan odio. Curabitur convallis. Duis consequat dui nec nisi volutpat eleifend. Donec ut dolor."},
{"name":"Toban","city":"Lungaog","address":"5538 Comanche Center","longitude":125.6879765,"latitude":7.5292285,"description":"Mauris sit amet eros. Suspendisse accumsan tortor quis turpis. Sed ante. Vivamus tortor. Duis mattis egestas metus."},
{"name":"Logan","city":"Cereté","address":"31 Jay Plaza","longitude":-75.9579358,"latitude":8.909013,"description":"Vivamus tortor. Duis mattis egestas metus. Aenean fermentum. Donec ut mauris eget massa tempor convallis. Nulla neque libero, convallis eget, eleifend luctus, ultricies eu, nibh."},
{"name":"Moose","city":"Limbi","address":"27153 Redwing Plaza","longitude":44.5057388,"latitude":-12.2446158,"description":"Integer tincidunt ante vel ipsum. Praesent blandit lacinia erat. Vestibulum sed magna at nunc commodo placerat. Praesent blandit. Nam nulla."},
{"name":"Morrow","city":"Aragarças","address":"41 Clarendon Terrace","longitude":-52.2516426,"latitude":-15.8958471,"description":"Proin interdum mauris non ligula pellentesque ultrices. Phasellus id sapien in sapien iaculis congue. Vivamus metus arcu, adipiscing molestie, hendrerit at, vulputate vitae, nisl. Aenean lectus. Pellentesque eget nunc."},
{"name":"Oriole","city":"Dundrum","address":"4 Bluejay Street","longitude":-6.2508196,"latitude":53.2866372,"description":"In tempor, turpis nec euismod scelerisque, quam turpis adipiscing lorem, vitae mattis nibh ligula nec sem. Duis aliquam convallis nunc. Proin at turpis a pede posuere nonummy. Integer non velit. Donec diam neque, vestibulum eget, vulputate ut, ultrices vel, augue."},
{"name":"Waubesa","city":"Coxim","address":"008 Hanson Lane","longitude":-54.6972774,"latitude":-18.3714305,"description":"Integer pede justo, lacinia eget, tincidunt eget, tempus vel, pede. Morbi porttitor lorem id ligula. Suspendisse ornare consequat lectus. In est risus, auctor sed, tristique in, tempus sit amet, sem. Fusce consequat."},
{"name":"School","city":"Thị Trấn Quảng Uyên","address":"71 Dakota Junction","longitude":106.4420595,"latitude":22.6925394,"description":"Morbi odio odio, elementum eu, interdum eu, tincidunt in, leo. Maecenas pulvinar lobortis est. Phasellus sit amet erat. Nulla tempus. Vivamus in felis eu sapien cursus vestibulum."},
{"name":"Leroy","city":"Yablonovskiy","address":"21737 South Place","longitude":38.9254064,"latitude":44.982137,"description":"Aliquam sit amet diam in magna bibendum imperdiet. Nullam orci pede, venenatis non, sodales sed, tincidunt eu, felis. Fusce posuere felis sed lacus. Morbi sem mauris, laoreet ut, rhoncus aliquet, pulvinar sed, nisl. Nunc rhoncus dui vel sem."},
{"name":"Lake View","city":"Hongchuan","address":"2998 Killdeer Avenue","longitude":105.903018,"latitude":33.74859,"description":"Maecenas ut massa quis augue luctus tincidunt. Nulla mollis molestie lorem. Quisque ut erat. Curabitur gravida nisi at nibh. In hac habitasse platea dictumst."},
{"name":"Dahle","city":"Raciąż","address":"630 Ruskin Way","longitude":20.11774,"latitude":52.7815,"description":"Nulla tellus. In sagittis dui vel nisl. Duis ac nibh. Fusce lacus purus, aliquet at, feugiat non, pretium quis, lectus. Suspendisse potenti."},
{"name":"Eastwood","city":"Pulosari","address":"604 Meadow Vale Drive","longitude":109.263397,"latitude":-7.158502,"description":"Duis ac nibh. Fusce lacus purus, aliquet at, feugiat non, pretium quis, lectus. Suspendisse potenti. In eleifend quam a odio. In hac habitasse platea dictumst."},
{"name":"Dottie","city":"Jiulong","address":"1829 Hazelcrest Avenue","longitude":101.507294,"latitude":29.000347,"description":"Vestibulum quam sapien, varius ut, blandit non, interdum in, ante. Vestibulum ante ipsum primis in faucibus orci luctus et ultrices posuere cubilia Curae; Duis faucibus accumsan odio. Curabitur convallis. Duis consequat dui nec nisi volutpat eleifend. Donec ut dolor."},
{"name":"High Crossing","city":"Visby","address":"09 Sauthoff Place","longitude":18.2940431,"latitude":57.6271949,"description":"In sagittis dui vel nisl. Duis ac nibh. Fusce lacus purus, aliquet at, feugiat non, pretium quis, lectus. Suspendisse potenti. In eleifend quam a odio."},
{"name":"7th","city":"Obiaruku Quarters","address":"16 Golf View Junction","longitude":6.15257,"latitude":5.84671,"description":"Nunc nisl. Duis bibendum, felis sed interdum venenatis, turpis enim blandit mi, in porttitor pede justo eu massa. Donec dapibus. Duis at velit eu est congue elementum. In hac habitasse platea dictumst."},
{"name":"Ramsey","city":"Linao","address":"03474 Dovetail Lane","longitude":120.995514,"latitude":14.572396,"description":"Vivamus metus arcu, adipiscing molestie, hendrerit at, vulputate vitae, nisl. Aenean lectus. Pellentesque eget nunc. Donec quis orci eget orci vehicula condimentum. Curabitur in libero ut massa volutpat convallis."},
{"name":"Shasta","city":"Sungaibengkal","address":"01739 Karstens Place","longitude":102.7479899,"latitude":-1.5117336,"description":"Aenean lectus. Pellentesque eget nunc. Donec quis orci eget orci vehicula condimentum. Curabitur in libero ut massa volutpat convallis. Morbi odio odio, elementum eu, interdum eu, tincidunt in, leo."},
{"name":"Westerfield","city":"Piskivka","address":"48133 Westend Point","longitude":29.5987334,"latitude":50.6960614,"description":"Praesent blandit. Nam nulla. Integer pede justo, lacinia eget, tincidunt eget, tempus vel, pede. Morbi porttitor lorem id ligula. Suspendisse ornare consequat lectus."},
{"name":"West","city":"Mutoko","address":"81761 Stang Road","longitude":32.2256803,"latitude":-17.4086322,"description":"Phasellus in felis. Donec semper sapien a libero. Nam dui. Proin leo odio, porttitor id, consequat in, consequat ut, nulla. Sed accumsan felis."},
{"name":"Northport","city":"Mari","address":"588 Crowley Street","longitude":-35.3246769,"latitude":-7.0655466,"description":"Duis at velit eu est congue elementum. In hac habitasse platea dictumst. Morbi vestibulum, velit id pretium iaculis, diam erat fermentum justo, nec condimentum neque sapien placerat ante. Nulla justo. Aliquam quis turpis eget elit sodales scelerisque."},
{"name":"Blue Bill Park","city":"Nanfeng","address":"0 Browning Avenue","longitude":116.525725,"latitude":27.218444,"description":"Etiam vel augue. Vestibulum rutrum rutrum neque. Aenean auctor gravida sem. Praesent id massa id nisl venenatis lacinia. Aenean sit amet justo."},
{"name":"Utah","city":"Olenegorsk","address":"565 Maryland Lane","longitude":33.9686556,"latitude":68.0986274,"description":"Phasellus id sapien in sapien iaculis congue. Vivamus metus arcu, adipiscing molestie, hendrerit at, vulputate vitae, nisl. Aenean lectus. Pellentesque eget nunc. Donec quis orci eget orci vehicula condimentum."},
{"name":"Badeau","city":"Garmo","address":"20295 Hintze Court","longitude":94.915316,"latitude":31.254198,"description":"Sed sagittis. Nam congue, risus semper porta volutpat, quam pede lobortis ligula, sit amet eleifend pede libero quis orci. Nullam molestie nibh in lectus. Pellentesque at nulla. Suspendisse potenti."},
{"name":"Atwood","city":"Mölndal","address":"66599 Fairview Street","longitude":11.9943311,"latitude":57.6888453,"description":"Vestibulum ante ipsum primis in faucibus orci luctus et ultrices posuere cubilia Curae; Mauris viverra diam vitae quam. Suspendisse potenti. Nullam porttitor lacus at turpis. Donec posuere metus vitae ipsum. Aliquam non mauris."},
{"name":"Sundown","city":"Kanoya","address":"2657 Moose Court","longitude":139.8816085,"latitude":36.6493964,"description":"Donec semper sapien a libero. Nam dui. Proin leo odio, porttitor id, consequat in, consequat ut, nulla. Sed accumsan felis. Ut at dolor quis odio consequat varius."},
{"name":"Mockingbird","city":"Białołeka","address":"4 Kinsman Terrace","longitude":20.941429,"latitude":52.3366443,"description":"Vestibulum ac est lacinia nisi venenatis tristique. Fusce congue, diam id ornare imperdiet, sapien urna pretium nisl, ut volutpat sapien arcu sed augue. Aliquam erat volutpat. In congue. Etiam justo."},
{"name":"Memorial","city":"Fusheng","address":"697 Sutteridge Drive","longitude":106.792686,"latitude":29.644609,"description":"Aenean lectus. Pellentesque eget nunc. Donec quis orci eget orci vehicula condimentum. Curabitur in libero ut massa volutpat convallis. Morbi odio odio, elementum eu, interdum eu, tincidunt in, leo."},
{"name":"Holmberg","city":"Rochefort","address":"76991 Stoughton Center","longitude":-0.9636732,"latitude":45.9472601,"description":"Ut tellus. Nulla ut erat id mauris vulputate elementum. Nullam varius. Nulla facilisi. Cras non velit nec nisi vulputate nonummy."},
{"name":"Scoville","city":"Ust’-Ilimsk","address":"3 Sherman Pass","longitude":102.7445248,"latitude":57.9536921,"description":"Ut tellus. Nulla ut erat id mauris vulputate elementum. Nullam varius. Nulla facilisi. Cras non velit nec nisi vulputate nonummy."},
{"name":"La Follette","city":"Rimus","address":"7159 Independence Lane","longitude":121.0577928,"latitude":14.6287391,"description":"Aliquam non mauris. Morbi non lectus. Aliquam sit amet diam in magna bibendum imperdiet. Nullam orci pede, venenatis non, sodales sed, tincidunt eu, felis. Fusce posuere felis sed lacus."},
{"name":"Fair Oaks","city":"Xiache","address":"0 Eastwood Avenue","longitude":102.521807,"latitude":35.202503,"description":"Morbi non lectus. Aliquam sit amet diam in magna bibendum imperdiet. Nullam orci pede, venenatis non, sodales sed, tincidunt eu, felis. Fusce posuere felis sed lacus. Morbi sem mauris, laoreet ut, rhoncus aliquet, pulvinar sed, nisl."},
{"name":"Crest Line","city":"Decatur","address":"52 Orin Terrace","longitude":-84.2953464,"latitude":33.7746886,"description":"Suspendisse potenti. Cras in purus eu magna vulputate luctus. Cum sociis natoque penatibus et magnis dis parturient montes, nascetur ridiculus mus. Vivamus vestibulum sagittis sapien. Cum sociis natoque penatibus et magnis dis parturient montes, nascetur ridiculus mus."},
{"name":"Almo","city":"Toutai","address":"7 Coleman Court","longitude":100.266091,"latitude":27.279995,"description":"Vestibulum ante ipsum primis in faucibus orci luctus et ultrices posuere cubilia Curae; Nulla dapibus dolor vel est. Donec odio justo, sollicitudin ut, suscipit a, feugiat et, eros. Vestibulum ac est lacinia nisi venenatis tristique. Fusce congue, diam id ornare imperdiet, sapien urna pretium nisl, ut volutpat sapien arcu sed augue. Aliquam erat volutpat."},
{"name":"Morningstar","city":"Purorejo","address":"42022 Pearson Park","longitude":110.0330554,"latitude":-7.7403739,"description":"Morbi non lectus. Aliquam sit amet diam in magna bibendum imperdiet. Nullam orci pede, venenatis non, sodales sed, tincidunt eu, felis. Fusce posuere felis sed lacus. Morbi sem mauris, laoreet ut, rhoncus aliquet, pulvinar sed, nisl."},
{"name":"Dunning","city":"Yawata","address":"054 Nova Pass","longitude":140.1171164,"latitude":35.5349444,"description":"Vivamus tortor. Duis mattis egestas metus. Aenean fermentum. Donec ut mauris eget massa tempor convallis. Nulla neque libero, convallis eget, eleifend luctus, ultricies eu, nibh."},
{"name":"Thierer","city":"Dmytrivka","address":"8 Comanche Park","longitude":29.3753657,"latitude":45.6429121,"description":"Nunc nisl. Duis bibendum, felis sed interdum venenatis, turpis enim blandit mi, in porttitor pede justo eu massa. Donec dapibus. Duis at velit eu est congue elementum. In hac habitasse platea dictumst."},
{"name":"Erie","city":"Lazaro Cardenas","address":"85 Warner Street","longitude":-102.1943485,"latitude":17.9567646,"description":"Lorem ipsum dolor sit amet, consectetuer adipiscing elit. Proin risus. Praesent lectus. Vestibulum quam sapien, varius ut, blandit non, interdum in, ante. Vestibulum ante ipsum primis in faucibus orci luctus et ultrices posuere cubilia Curae; Duis faucibus accumsan odio."},
{"name":"Mesta","city":"Bara Datu","address":"17995 Beilfuss Terrace","longitude":104.5422225,"latitude":-4.6772418,"description":"Morbi ut odio. Cras mi pede, malesuada in, imperdiet et, commodo vulputate, justo. In blandit ultrices enim. Lorem ipsum dolor sit amet, consectetuer adipiscing elit. Proin interdum mauris non ligula pellentesque ultrices."},
{"name":"3rd","city":"Hostouň","address":"64254 Blue Bill Park Way","longitude":12.7714782,"latitude":49.5597209,"description":"Fusce posuere felis sed lacus. Morbi sem mauris, laoreet ut, rhoncus aliquet, pulvinar sed, nisl. Nunc rhoncus dui vel sem. Sed sagittis. Nam congue, risus semper porta volutpat, quam pede lobortis ligula, sit amet eleifend pede libero quis orci."},
{"name":"Tomscot","city":"Ārifwāla","address":"27446 Dapin Street","longitude":73.0947607,"latitude":30.6377274,"description":"Maecenas tincidunt lacus at velit. Vivamus vel nulla eget eros elementum pellentesque. Quisque porta volutpat erat. Quisque erat eros, viverra eget, congue eget, semper rutrum, nulla. Nunc purus."},
{"name":"Harbort","city":"Butwāl","address":"8 Hollow Ridge Pass","longitude":83.4323375,"latitude":27.6873608,"description":"Aliquam sit amet diam in magna bibendum imperdiet. Nullam orci pede, venenatis non, sodales sed, tincidunt eu, felis. Fusce posuere felis sed lacus. Morbi sem mauris, laoreet ut, rhoncus aliquet, pulvinar sed, nisl. Nunc rhoncus dui vel sem."},
{"name":"Hoard","city":"Jardín América","address":"8 Vidon Terrace","longitude":-54.9815915,"latitude":-27.2000865,"description":"Vestibulum ante ipsum primis in faucibus orci luctus et ultrices posuere cubilia Curae; Mauris viverra diam vitae quam. Suspendisse potenti. Nullam porttitor lacus at turpis. Donec posuere metus vitae ipsum. Aliquam non mauris."},
{"name":"Arkansas","city":"Cogreg Wetan","address":"925 Marquette Pass","longitude":106.6989632,"latitude":-6.4610391,"description":"Lorem ipsum dolor sit amet, consectetuer adipiscing elit. Proin risus. Praesent lectus. Vestibulum quam sapien, varius ut, blandit non, interdum in, ante. Vestibulum ante ipsum primis in faucibus orci luctus et ultrices posuere cubilia Curae; Duis faucibus accumsan odio."},
{"name":"Dunning","city":"Nový Malín","address":"37192 Rowland Way","longitude":17.0618602,"latitude":49.9458951,"description":"Vestibulum ante ipsum primis in faucibus orci luctus et ultrices posuere cubilia Curae; Nulla dapibus dolor vel est. Donec odio justo, sollicitudin ut, suscipit a, feugiat et, eros. Vestibulum ac est lacinia nisi venenatis tristique. Fusce congue, diam id ornare imperdiet, sapien urna pretium nisl, ut volutpat sapien arcu sed augue. Aliquam erat volutpat."},
{"name":"Haas","city":"Buckland","address":"7 Luster Street","longitude":1.2986666,"latitude":51.1372058,"description":"Fusce consequat. Nulla nisl. Nunc nisl. Duis bibendum, felis sed interdum venenatis, turpis enim blandit mi, in porttitor pede justo eu massa. Donec dapibus."},
{"name":"Talisman","city":"Seremban","address":"748 Sunbrook Plaza","longitude":101.9476452,"latitude":2.7239834,"description":"Aliquam augue quam, sollicitudin vitae, consectetuer eget, rutrum at, lorem. Integer tincidunt ante vel ipsum. Praesent blandit lacinia erat. Vestibulum sed magna at nunc commodo placerat. Praesent blandit."},
{"name":"Almo","city":"Hudiksvall","address":"957 Pawling Plaza","longitude":16.1406946,"latitude":61.8245883,"description":"Cras pellentesque volutpat dui. Maecenas tristique, est et tempus semper, est quam pharetra magna, ac consequat metus sapien ut nunc. Vestibulum ante ipsum primis in faucibus orci luctus et ultrices posuere cubilia Curae; Mauris viverra diam vitae quam. Suspendisse potenti. Nullam porttitor lacus at turpis."},
{"name":"Stoughton","city":"Tingsiqiao","address":"1 Commercial Junction","longitude":114.179091,"latitude":29.812121,"description":"In congue. Etiam justo. Etiam pretium iaculis justo. In hac habitasse platea dictumst. Etiam faucibus cursus urna."},
{"name":"Miller","city":"Nemby","address":"11152 Graceland Avenue","longitude":-57.536292,"latitude":-25.3961603,"description":"Phasellus sit amet erat. Nulla tempus. Vivamus in felis eu sapien cursus vestibulum. Proin eu mi. Nulla ac enim."},
{"name":"Swallow","city":"Rouen","address":"50521 Macpherson Avenue","longitude":1.0974675,"latitude":49.4378273,"description":"Pellentesque eget nunc. Donec quis orci eget orci vehicula condimentum. Curabitur in libero ut massa volutpat convallis. Morbi odio odio, elementum eu, interdum eu, tincidunt in, leo. Maecenas pulvinar lobortis est."},
{"name":"Eastwood","city":"Sansheng","address":"93 Commercial Way","longitude":101.273161,"latitude":23.561556,"description":"Duis at velit eu est congue elementum. In hac habitasse platea dictumst. Morbi vestibulum, velit id pretium iaculis, diam erat fermentum justo, nec condimentum neque sapien placerat ante. Nulla justo. Aliquam quis turpis eget elit sodales scelerisque."},
{"name":"Summit","city":"Jiyang","address":"5832 Hanover Alley","longitude":117.173524,"latitude":36.978537,"description":"Morbi odio odio, elementum eu, interdum eu, tincidunt in, leo. Maecenas pulvinar lobortis est. Phasellus sit amet erat. Nulla tempus. Vivamus in felis eu sapien cursus vestibulum."},
{"name":"2nd","city":"Helsingborg","address":"2 Maple Circle","longitude":12.7450795,"latitude":56.0442244,"description":"In quis justo. Maecenas rhoncus aliquam lacus. Morbi quis tortor id nulla ultrices aliquet. Maecenas leo odio, condimentum id, luctus nec, molestie sed, justo. Pellentesque viverra pede ac diam."},
{"name":"Cherokee","city":"Gaspra","address":"41 Paget Pass","longitude":34.1121629,"latitude":44.4353271,"description":"Nunc rhoncus dui vel sem. Sed sagittis. Nam congue, risus semper porta volutpat, quam pede lobortis ligula, sit amet eleifend pede libero quis orci. Nullam molestie nibh in lectus. Pellentesque at nulla."},
{"name":"Cordelia","city":"Su-ngai Kolok","address":"3280 Forest Run Lane","longitude":101.951925,"latitude":6.0151191,"description":"Praesent blandit. Nam nulla. Integer pede justo, lacinia eget, tincidunt eget, tempus vel, pede. Morbi porttitor lorem id ligula. Suspendisse ornare consequat lectus."},
{"name":"Maple Wood","city":"Al Ḩīlah","address":"533 Mccormick Pass","longitude":35.10742,"latitude":31.47454,"description":"Pellentesque ultrices mattis odio. Donec vitae nisi. Nam ultrices, libero non mattis pulvinar, nulla pede ullamcorper augue, a suscipit nulla elit ac nulla. Sed vel enim sit amet nunc viverra dapibus. Nulla suscipit ligula in lacus."},
{"name":"Parkside","city":"Lampa","address":"14491 Butternut Road","longitude":-70.879328,"latitude":-33.2827093,"description":"Integer a nibh. In quis justo. Maecenas rhoncus aliquam lacus. Morbi quis tortor id nulla ultrices aliquet. Maecenas leo odio, condimentum id, luctus nec, molestie sed, justo."},
{"name":"Bashford","city":"Xuanhua","address":"8423 Raven Point","longitude":115.099494,"latitude":40.608793,"description":"Morbi non lectus. Aliquam sit amet diam in magna bibendum imperdiet. Nullam orci pede, venenatis non, sodales sed, tincidunt eu, felis. Fusce posuere felis sed lacus. Morbi sem mauris, laoreet ut, rhoncus aliquet, pulvinar sed, nisl."},
{"name":"Corry","city":"Dahe","address":"052 Spohn Terrace","longitude":114.397004,"latitude":38.135288,"description":"Etiam faucibus cursus urna. Ut tellus. Nulla ut erat id mauris vulputate elementum. Nullam varius. Nulla facilisi."},
{"name":"David","city":"Yichun","address":"1903 Tony Road","longitude":114.416785,"latitude":27.815743,"description":"Vestibulum ante ipsum primis in faucibus orci luctus et ultrices posuere cubilia Curae; Donec pharetra, magna vestibulum aliquet ultrices, erat tortor sollicitudin mi, sit amet lobortis sapien sapien non mi. Integer ac neque. Duis bibendum. Morbi non quam nec dui luctus rutrum. Nulla tellus."},
{"name":"Forest","city":"Kamal","address":"88705 Pennsylvania Circle","longitude":106.6969285,"latitude":-6.1014059,"description":"Quisque ut erat. Curabitur gravida nisi at nibh. In hac habitasse platea dictumst. Aliquam augue quam, sollicitudin vitae, consectetuer eget, rutrum at, lorem. Integer tincidunt ante vel ipsum."},
{"name":"Aberg","city":"Nijmegen","address":"1 Shelley Avenue","longitude":5.8715134,"latitude":51.8417492,"description":"Cras mi pede, malesuada in, imperdiet et, commodo vulputate, justo. In blandit ultrices enim. Lorem ipsum dolor sit amet, consectetuer adipiscing elit. Proin interdum mauris non ligula pellentesque ultrices. Phasellus id sapien in sapien iaculis congue."},
{"name":"Canary","city":"Plei Kần","address":"87805 Schmedeman Avenue","longitude":107.6984879,"latitude":14.7043324,"description":"Pellentesque viverra pede ac diam. Cras pellentesque volutpat dui. Maecenas tristique, est et tempus semper, est quam pharetra magna, ac consequat metus sapien ut nunc. Vestibulum ante ipsum primis in faucibus orci luctus et ultrices posuere cubilia Curae; Mauris viverra diam vitae quam. Suspendisse potenti."},
{"name":"Moose","city":"Loanda","address":"6004 Morningstar Pass","longitude":-53.0888943,"latitude":-22.9262769,"description":"Nulla ac enim. In tempor, turpis nec euismod scelerisque, quam turpis adipiscing lorem, vitae mattis nibh ligula nec sem. Duis aliquam convallis nunc. Proin at turpis a pede posuere nonummy. Integer non velit."},
{"name":"Continental","city":"Belawang","address":"4 Charing Cross Parkway","longitude":114.65,"latitude":-2.8166669,"description":"Donec ut mauris eget massa tempor convallis. Nulla neque libero, convallis eget, eleifend luctus, ultricies eu, nibh. Quisque id justo sit amet sapien dignissim vestibulum. Vestibulum ante ipsum primis in faucibus orci luctus et ultrices posuere cubilia Curae; Nulla dapibus dolor vel est. Donec odio justo, sollicitudin ut, suscipit a, feugiat et, eros."},
{"name":"Kings","city":"Lady Frere","address":"1 Doe Crossing Pass","longitude":27.3469574,"latitude":-31.7457502,"description":"Integer ac neque. Duis bibendum. Morbi non quam nec dui luctus rutrum. Nulla tellus. In sagittis dui vel nisl."},
{"name":"Veith","city":"Ganjun","address":"5361 Pepper Wood Trail","longitude":100.177294,"latitude":38.963066,"description":"In quis justo. Maecenas rhoncus aliquam lacus. Morbi quis tortor id nulla ultrices aliquet. Maecenas leo odio, condimentum id, luctus nec, molestie sed, justo. Pellentesque viverra pede ac diam."},
{"name":"Kings","city":"Atarodangwautu","address":"0 Tennessee Plaza","longitude":123.759,"latitude":-8.1836,"description":"Nulla tellus. In sagittis dui vel nisl. Duis ac nibh. Fusce lacus purus, aliquet at, feugiat non, pretium quis, lectus. Suspendisse potenti."},
{"name":"Bunker Hill","city":"Yuelai","address":"98 Utah Crossing","longitude":106.53519,"latitude":29.72277,"description":"Nulla nisl. Nunc nisl. Duis bibendum, felis sed interdum venenatis, turpis enim blandit mi, in porttitor pede justo eu massa. Donec dapibus. Duis at velit eu est congue elementum."},
{"name":"Graceland","city":"Katy","address":"865 Heath Street","longitude":-95.8243956,"latitude":29.7857853,"description":"Fusce posuere felis sed lacus. Morbi sem mauris, laoreet ut, rhoncus aliquet, pulvinar sed, nisl. Nunc rhoncus dui vel sem. Sed sagittis. Nam congue, risus semper porta volutpat, quam pede lobortis ligula, sit amet eleifend pede libero quis orci."},
{"name":"Grim","city":"Paris 17","address":"6 Menomonie Crossing","longitude":5.8978018,"latitude":43.4945737,"description":"Aliquam augue quam, sollicitudin vitae, consectetuer eget, rutrum at, lorem. Integer tincidunt ante vel ipsum. Praesent blandit lacinia erat. Vestibulum sed magna at nunc commodo placerat. Praesent blandit."},
{"name":"Onsgard","city":"Jinanten","address":"8268 Jenna Park","longitude":111.5736596,"latitude":-6.8744345,"description":"In hac habitasse platea dictumst. Etiam faucibus cursus urna. Ut tellus. Nulla ut erat id mauris vulputate elementum. Nullam varius."},
{"name":"Birchwood","city":"Al Bahlūlīyah","address":"130 Dottie Alley","longitude":35.9546934,"latitude":35.6353092,"description":"Integer pede justo, lacinia eget, tincidunt eget, tempus vel, pede. Morbi porttitor lorem id ligula. Suspendisse ornare consequat lectus. In est risus, auctor sed, tristique in, tempus sit amet, sem. Fusce consequat."},
{"name":"Grover","city":"Krajan C Wonorejo","address":"814 Grasskamp Plaza","longitude":110.2498957,"latitude":-6.9561332,"description":"Vivamus tortor. Duis mattis egestas metus. Aenean fermentum. Donec ut mauris eget massa tempor convallis. Nulla neque libero, convallis eget, eleifend luctus, ultricies eu, nibh."},
{"name":"Pierstorff","city":"Ereira","address":"84 Welch Lane","longitude":-8.8661993,"latitude":39.1762837,"description":"Lorem ipsum dolor sit amet, consectetuer adipiscing elit. Proin interdum mauris non ligula pellentesque ultrices. Phasellus id sapien in sapien iaculis congue. Vivamus metus arcu, adipiscing molestie, hendrerit at, vulputate vitae, nisl. Aenean lectus."},
{"name":"Golden Leaf","city":"Geneng Tengah","address":"488 Boyd Avenue","longitude":110.7584366,"latitude":-7.605833,"description":"Duis at velit eu est congue elementum. In hac habitasse platea dictumst. Morbi vestibulum, velit id pretium iaculis, diam erat fermentum justo, nec condimentum neque sapien placerat ante. Nulla justo. Aliquam quis turpis eget elit sodales scelerisque."},
{"name":"Artisan","city":"Mnichovo Hradiště","address":"7 Fulton Way","longitude":14.9720041,"latitude":50.5269291,"description":"Cum sociis natoque penatibus et magnis dis parturient montes, nascetur ridiculus mus. Vivamus vestibulum sagittis sapien. Cum sociis natoque penatibus et magnis dis parturient montes, nascetur ridiculus mus. Etiam vel augue. Vestibulum rutrum rutrum neque."},
{"name":"Union","city":"Portalegre","address":"8 Portage Alley","longitude":-7.4229064,"latitude":39.2868418,"description":"Vivamus tortor. Duis mattis egestas metus. Aenean fermentum. Donec ut mauris eget massa tempor convallis. Nulla neque libero, convallis eget, eleifend luctus, ultricies eu, nibh."},
{"name":"Thackeray","city":"Shuinanxu","address":"15 Bartelt Avenue","longitude":116.490286,"latitude":26.83411,"description":"Praesent id massa id nisl venenatis lacinia. Aenean sit amet justo. Morbi ut odio. Cras mi pede, malesuada in, imperdiet et, commodo vulputate, justo. In blandit ultrices enim."},
{"name":"Moland","city":"Cookshire-Eaton","address":"91368 Fair Oaks Terrace","longitude":-71.6324,"latitude":45.41675,"description":"Nulla facilisi. Cras non velit nec nisi vulputate nonummy. Maecenas tincidunt lacus at velit. Vivamus vel nulla eget eros elementum pellentesque. Quisque porta volutpat erat."},
{"name":"Talisman","city":"Şalākhid","address":"8919 Hooker Alley","longitude":36.574293,"latitude":32.8718172,"description":"Duis consequat dui nec nisi volutpat eleifend. Donec ut dolor. Morbi vel lectus in quam fringilla rhoncus. Mauris enim leo, rhoncus sed, vestibulum sit amet, cursus id, turpis. Integer aliquet, massa id lobortis convallis, tortor risus dapibus augue, vel accumsan tellus nisi eu orci."},
{"name":"Summer Ridge","city":"Kongjiang","address":"95 Brickson Park Plaza","longitude":89.208761,"latitude":29.686366,"description":"Nulla ut erat id mauris vulputate elementum. Nullam varius. Nulla facilisi. Cras non velit nec nisi vulputate nonummy. Maecenas tincidunt lacus at velit."},
{"name":"Oakridge","city":"San Rafael del Sur","address":"28760 Brentwood Pass","longitude":-86.4364441,"latitude":11.8469126,"description":"Maecenas ut massa quis augue luctus tincidunt. Nulla mollis molestie lorem. Quisque ut erat. Curabitur gravida nisi at nibh. In hac habitasse platea dictumst."},
{"name":"Victoria","city":"Xinzhan","address":"9919 Eastlawn Alley","longitude":117.3279441,"latitude":31.8948117,"description":"Morbi quis tortor id nulla ultrices aliquet. Maecenas leo odio, condimentum id, luctus nec, molestie sed, justo. Pellentesque viverra pede ac diam. Cras pellentesque volutpat dui. Maecenas tristique, est et tempus semper, est quam pharetra magna, ac consequat metus sapien ut nunc."},
{"name":"Northfield","city":"Arboga","address":"0430 Orin Pass","longitude":15.7718467,"latitude":59.4547192,"description":"Nulla facilisi. Cras non velit nec nisi vulputate nonummy. Maecenas tincidunt lacus at velit. Vivamus vel nulla eget eros elementum pellentesque. Quisque porta volutpat erat."},
{"name":"Butterfield","city":"Al Funayţīs","address":"70259 Mandrake Junction","longitude":48.118031,"latitude":29.173201,"description":"Proin eu mi. Nulla ac enim. In tempor, turpis nec euismod scelerisque, quam turpis adipiscing lorem, vitae mattis nibh ligula nec sem. Duis aliquam convallis nunc. Proin at turpis a pede posuere nonummy."},
{"name":"Roxbury","city":"Diego de Almagro","address":"118 Ludington Pass","longitude":-70.0475302,"latitude":-26.3902488,"description":"Duis at velit eu est congue elementum. In hac habitasse platea dictumst. Morbi vestibulum, velit id pretium iaculis, diam erat fermentum justo, nec condimentum neque sapien placerat ante. Nulla justo. Aliquam quis turpis eget elit sodales scelerisque."},
{"name":"Holy Cross","city":"Ambatofinandrahana","address":"2 Bellgrove Parkway","longitude":46.8010727,"latitude":-20.5501168,"description":"Fusce lacus purus, aliquet at, feugiat non, pretium quis, lectus. Suspendisse potenti. In eleifend quam a odio. In hac habitasse platea dictumst. Maecenas ut massa quis augue luctus tincidunt."},
{"name":"1st","city":"Plaza Huincul","address":"56 Bonner Lane","longitude":-68.8493333,"latitude":-32.9677252,"description":"Nunc purus. Phasellus in felis. Donec semper sapien a libero. Nam dui. Proin leo odio, porttitor id, consequat in, consequat ut, nulla."},
{"name":"Washington","city":"Solec Nad Wisłą","address":"2122 Dapin Park","longitude":21.7749021,"latitude":51.14554,"description":"Pellentesque eget nunc. Donec quis orci eget orci vehicula condimentum. Curabitur in libero ut massa volutpat convallis. Morbi odio odio, elementum eu, interdum eu, tincidunt in, leo. Maecenas pulvinar lobortis est."},
{"name":"Oakridge","city":"Perzów","address":"79066 Judy Trail","longitude":17.8095674,"latitude":51.2757594,"description":"Duis bibendum. Morbi non quam nec dui luctus rutrum. Nulla tellus. In sagittis dui vel nisl. Duis ac nibh."},
{"name":"Rockefeller","city":"Wanjiazhuang","address":"4424 Shopko Alley","longitude":116.291322,"latitude":40.020575,"description":"Sed ante. Vivamus tortor. Duis mattis egestas metus. Aenean fermentum. Donec ut mauris eget massa tempor convallis."},
{"name":"Hoard","city":"Sendangagung","address":"862 Londonderry Plaza","longitude":110.2325862,"latitude":-7.7280457,"description":"Phasellus sit amet erat. Nulla tempus. Vivamus in felis eu sapien cursus vestibulum. Proin eu mi. Nulla ac enim."},
{"name":"Waywood","city":"Bulumulyo","address":"881 Butterfield Trail","longitude":111.1950767,"latitude":-6.7332152,"description":"Proin interdum mauris non ligula pellentesque ultrices. Phasellus id sapien in sapien iaculis congue. Vivamus metus arcu, adipiscing molestie, hendrerit at, vulputate vitae, nisl. Aenean lectus. Pellentesque eget nunc."},
{"name":"Crowley","city":"Strzyżowice","address":"8 Talmadge Hill","longitude":19.087773,"latitude":50.3836071,"description":"Aliquam augue quam, sollicitudin vitae, consectetuer eget, rutrum at, lorem. Integer tincidunt ante vel ipsum. Praesent blandit lacinia erat. Vestibulum sed magna at nunc commodo placerat. Praesent blandit."},
{"name":"Elgar","city":"Oka","address":"1 Harper Circle","longitude":-74.0798679,"latitude":45.4651444,"description":"Sed ante. Vivamus tortor. Duis mattis egestas metus. Aenean fermentum. Donec ut mauris eget massa tempor convallis."},
{"name":"Kipling","city":"Taohuajiang","address":"11 Nelson Center","longitude":112.140063,"latitude":28.520684,"description":"Phasellus id sapien in sapien iaculis congue. Vivamus metus arcu, adipiscing molestie, hendrerit at, vulputate vitae, nisl. Aenean lectus. Pellentesque eget nunc. Donec quis orci eget orci vehicula condimentum."},
{"name":"Algoma","city":"Barbalha","address":"4279 Loomis Way","longitude":-39.2791011,"latitude":-7.3811967,"description":"Mauris lacinia sapien quis libero. Nullam sit amet turpis elementum ligula vehicula consequat. Morbi a ipsum. Integer a nibh. In quis justo."},
{"name":"Carioca","city":"Haozhai","address":"973 Park Meadow Drive","longitude":118.512944,"latitude":30.181472,"description":"Vivamus vestibulum sagittis sapien. Cum sociis natoque penatibus et magnis dis parturient montes, nascetur ridiculus mus. Etiam vel augue. Vestibulum rutrum rutrum neque. Aenean auctor gravida sem."},
{"name":"Spenser","city":"Longlisuo","address":"234 Melby Terrace","longitude":109.10222,"latitude":26.41417,"description":"Maecenas ut massa quis augue luctus tincidunt. Nulla mollis molestie lorem. Quisque ut erat. Curabitur gravida nisi at nibh. In hac habitasse platea dictumst."},
{"name":"Clarendon","city":"Ljupina","address":"78084 Mandrake Junction","longitude":17.3811959,"latitude":45.2188634,"description":"Morbi vestibulum, velit id pretium iaculis, diam erat fermentum justo, nec condimentum neque sapien placerat ante. Nulla justo. Aliquam quis turpis eget elit sodales scelerisque. Mauris sit amet eros. Suspendisse accumsan tortor quis turpis."},
{"name":"Briar Crest","city":"Anahawan","address":"381 Clove Center","longitude":125.257432,"latitude":10.274447,"description":"Nulla ut erat id mauris vulputate elementum. Nullam varius. Nulla facilisi. Cras non velit nec nisi vulputate nonummy. Maecenas tincidunt lacus at velit."},
{"name":"Westend","city":"Pochinok","address":"994 David Center","longitude":32.4242426,"latitude":54.4185233,"description":"Cum sociis natoque penatibus et magnis dis parturient montes, nascetur ridiculus mus. Vivamus vestibulum sagittis sapien. Cum sociis natoque penatibus et magnis dis parturient montes, nascetur ridiculus mus. Etiam vel augue. Vestibulum rutrum rutrum neque."},
{"name":"Eggendart","city":"Nevinnomyssk","address":"18634 Mcbride Way","longitude":41.9381568,"latitude":44.6381341,"description":"Cum sociis natoque penatibus et magnis dis parturient montes, nascetur ridiculus mus. Vivamus vestibulum sagittis sapien. Cum sociis natoque penatibus et magnis dis parturient montes, nascetur ridiculus mus. Etiam vel augue. Vestibulum rutrum rutrum neque."},
{"name":"Transport","city":"Santiago","address":"3425 Moulton Court","longitude":-54.8731219,"latitude":-29.1051592,"description":"Curabitur gravida nisi at nibh. In hac habitasse platea dictumst. Aliquam augue quam, sollicitudin vitae, consectetuer eget, rutrum at, lorem. Integer tincidunt ante vel ipsum. Praesent blandit lacinia erat."},
{"name":"Meadow Vale","city":"Aghavnadzor","address":"944 Barnett Park","longitude":44.6998779,"latitude":40.5784827,"description":"Donec posuere metus vitae ipsum. Aliquam non mauris. Morbi non lectus. Aliquam sit amet diam in magna bibendum imperdiet. Nullam orci pede, venenatis non, sodales sed, tincidunt eu, felis."},
{"name":"Fallview","city":"Yablonovskiy","address":"799 8th Crossing","longitude":38.9254064,"latitude":44.982137,"description":"Curabitur in libero ut massa volutpat convallis. Morbi odio odio, elementum eu, interdum eu, tincidunt in, leo. Maecenas pulvinar lobortis est. Phasellus sit amet erat. Nulla tempus."},
{"name":"Bunker Hill","city":"Krasnokholm","address":"76522 Comanche Hill","longitude":54.1584621,"latitude":51.5969624,"description":"Suspendisse potenti. Nullam porttitor lacus at turpis. Donec posuere metus vitae ipsum. Aliquam non mauris. Morbi non lectus."},
{"name":"Boyd","city":"Senhor da Serra","address":"76260 Main Center","longitude":-8.3479579,"latitude":40.152053,"description":"Curabitur in libero ut massa volutpat convallis. Morbi odio odio, elementum eu, interdum eu, tincidunt in, leo. Maecenas pulvinar lobortis est. Phasellus sit amet erat. Nulla tempus."},
{"name":"Hooker","city":"Santa Ana","address":"75 Cherokee Hill","longitude":-63.9201942,"latitude":11.0678757,"description":"Donec diam neque, vestibulum eget, vulputate ut, ultrices vel, augue. Vestibulum ante ipsum primis in faucibus orci luctus et ultrices posuere cubilia Curae; Donec pharetra, magna vestibulum aliquet ultrices, erat tortor sollicitudin mi, sit amet lobortis sapien sapien non mi. Integer ac neque. Duis bibendum. Morbi non quam nec dui luctus rutrum."},
{"name":"Nova","city":"Madagali","address":"86212 Golf Course Drive","longitude":13.6275894,"latitude":10.8909284,"description":"Maecenas tristique, est et tempus semper, est quam pharetra magna, ac consequat metus sapien ut nunc. Vestibulum ante ipsum primis in faucibus orci luctus et ultrices posuere cubilia Curae; Mauris viverra diam vitae quam. Suspendisse potenti. Nullam porttitor lacus at turpis. Donec posuere metus vitae ipsum."},
{"name":"Sutherland","city":"Edinburgh of the Seven Seas","address":"49429 Kropf Hill","longitude":-12.3113147,"latitude":-37.0680421,"description":"Etiam faucibus cursus urna. Ut tellus. Nulla ut erat id mauris vulputate elementum. Nullam varius. Nulla facilisi."},
{"name":"Brickson Park","city":"Yongfeng","address":"254 Tony Center","longitude":115.444319,"latitude":27.318852,"description":"Mauris enim leo, rhoncus sed, vestibulum sit amet, cursus id, turpis. Integer aliquet, massa id lobortis convallis, tortor risus dapibus augue, vel accumsan tellus nisi eu orci. Mauris lacinia sapien quis libero. Nullam sit amet turpis elementum ligula vehicula consequat. Morbi a ipsum."},
{"name":"Bultman","city":"Mulyosari","address":"7196 Coleman Plaza","longitude":110.0196561,"latitude":-7.1066698,"description":"Nulla ac enim. In tempor, turpis nec euismod scelerisque, quam turpis adipiscing lorem, vitae mattis nibh ligula nec sem. Duis aliquam convallis nunc. Proin at turpis a pede posuere nonummy. Integer non velit."},
{"name":"Carey","city":"Ålesund","address":"08487 Hoffman Pass","longitude":6.1367039,"latitude":62.4698318,"description":"Donec quis orci eget orci vehicula condimentum. Curabitur in libero ut massa volutpat convallis. Morbi odio odio, elementum eu, interdum eu, tincidunt in, leo. Maecenas pulvinar lobortis est. Phasellus sit amet erat."},
{"name":"Granby","city":"Wenci","address":"18 Jana Circle","longitude":116.932436,"latitude":23.802044,"description":"Vestibulum sed magna at nunc commodo placerat. Praesent blandit. Nam nulla. Integer pede justo, lacinia eget, tincidunt eget, tempus vel, pede. Morbi porttitor lorem id ligula."},
{"name":"Merchant","city":"Kensington","address":"1582 Vermont Terrace","longitude":-106.6611689,"latitude":52.125546,"description":"Donec diam neque, vestibulum eget, vulputate ut, ultrices vel, augue. Vestibulum ante ipsum primis in faucibus orci luctus et ultrices posuere cubilia Curae; Donec pharetra, magna vestibulum aliquet ultrices, erat tortor sollicitudin mi, sit amet lobortis sapien sapien non mi. Integer ac neque. Duis bibendum. Morbi non quam nec dui luctus rutrum."},
{"name":"Rockefeller","city":"Hola Prystan’","address":"7423 Novick Center","longitude":32.5201269,"latitude":46.5210948,"description":"Mauris sit amet eros. Suspendisse accumsan tortor quis turpis. Sed ante. Vivamus tortor. Duis mattis egestas metus."},
{"name":"Oxford","city":"Buenavista","address":"4499 Oxford Crossing","longitude":-99.1497664,"latitude":19.4458447,"description":"In hac habitasse platea dictumst. Etiam faucibus cursus urna. Ut tellus. Nulla ut erat id mauris vulputate elementum. Nullam varius."},
{"name":"Straubel","city":"Ciklapa","address":"20 Northview Hill","longitude":108.7987084,"latitude":-7.5009787,"description":"Integer pede justo, lacinia eget, tincidunt eget, tempus vel, pede. Morbi porttitor lorem id ligula. Suspendisse ornare consequat lectus. In est risus, auctor sed, tristique in, tempus sit amet, sem. Fusce consequat."},
{"name":"Towne","city":"Sanchahe","address":"5167 Cordelia Street","longitude":114.137862,"latitude":22.541373,"description":"Integer aliquet, massa id lobortis convallis, tortor risus dapibus augue, vel accumsan tellus nisi eu orci. Mauris lacinia sapien quis libero. Nullam sit amet turpis elementum ligula vehicula consequat. Morbi a ipsum. Integer a nibh."},
{"name":"Del Sol","city":"Soko","address":"2330 Charing Cross Road","longitude":111.9403254,"latitude":-7.0961965,"description":"Nunc purus. Phasellus in felis. Donec semper sapien a libero. Nam dui. Proin leo odio, porttitor id, consequat in, consequat ut, nulla."},
{"name":"Clove","city":"Dijon","address":"046 Farragut Center","longitude":2.5135985,"latitude":45.2977605,"description":"Sed vel enim sit amet nunc viverra dapibus. Nulla suscipit ligula in lacus. Curabitur at ipsum ac tellus semper interdum. Mauris ullamcorper purus sit amet nulla. Quisque arcu libero, rutrum ac, lobortis vel, dapibus at, diam."},
{"name":"Harper","city":"Andong","address":"8794 Carioca Center","longitude":128.729357,"latitude":36.5683543,"description":"Pellentesque viverra pede ac diam. Cras pellentesque volutpat dui. Maecenas tristique, est et tempus semper, est quam pharetra magna, ac consequat metus sapien ut nunc. Vestibulum ante ipsum primis in faucibus orci luctus et ultrices posuere cubilia Curae; Mauris viverra diam vitae quam. Suspendisse potenti."},
{"name":"Tomscot","city":"Huashixia","address":"748 Carpenter Road","longitude":102.149548,"latitude":36.878124,"description":"Curabitur gravida nisi at nibh. In hac habitasse platea dictumst. Aliquam augue quam, sollicitudin vitae, consectetuer eget, rutrum at, lorem. Integer tincidunt ante vel ipsum. Praesent blandit lacinia erat."},
{"name":"Green Ridge","city":"Pavlovka","address":"45943 Golf Street","longitude":49.7198694,"latitude":52.6653765,"description":"Aliquam sit amet diam in magna bibendum imperdiet. Nullam orci pede, venenatis non, sodales sed, tincidunt eu, felis. Fusce posuere felis sed lacus. Morbi sem mauris, laoreet ut, rhoncus aliquet, pulvinar sed, nisl. Nunc rhoncus dui vel sem."},
{"name":"Little Fleur","city":"Bafoussam","address":"40265 Northwestern Center","longitude":10.4284178,"latitude":5.4807517,"description":"Quisque erat eros, viverra eget, congue eget, semper rutrum, nulla. Nunc purus. Phasellus in felis. Donec semper sapien a libero. Nam dui."},
{"name":"Acker","city":"Peresvet","address":"98708 Schurz Pass","longitude":38.1361325,"latitude":56.3736264,"description":"Nullam porttitor lacus at turpis. Donec posuere metus vitae ipsum. Aliquam non mauris. Morbi non lectus. Aliquam sit amet diam in magna bibendum imperdiet."},
{"name":"Hanson","city":"Pa Tio","address":"2206 Mendota Alley","longitude":104.4024704,"latitude":15.8359591,"description":"Pellentesque ultrices mattis odio. Donec vitae nisi. Nam ultrices, libero non mattis pulvinar, nulla pede ullamcorper augue, a suscipit nulla elit ac nulla. Sed vel enim sit amet nunc viverra dapibus. Nulla suscipit ligula in lacus."},
{"name":"Union","city":"Storvreta","address":"930 Oneill Way","longitude":17.6401142,"latitude":59.970959,"description":"Mauris sit amet eros. Suspendisse accumsan tortor quis turpis. Sed ante. Vivamus tortor. Duis mattis egestas metus."},
{"name":"Bunting","city":"Huanggang","address":"304 Clemons Hill","longitude":114.872199,"latitude":30.453667,"description":"Duis ac nibh. Fusce lacus purus, aliquet at, feugiat non, pretium quis, lectus. Suspendisse potenti. In eleifend quam a odio. In hac habitasse platea dictumst."},
{"name":"Northfield","city":"Las Palmas","address":"9750 Starling Terrace","longitude":-76.0043731,"latitude":-9.385742,"description":"Integer tincidunt ante vel ipsum. Praesent blandit lacinia erat. Vestibulum sed magna at nunc commodo placerat. Praesent blandit. Nam nulla."},
{"name":"Lakewood Gardens","city":"Kerek","address":"55 Scott Lane","longitude":111.8330106,"latitude":-6.8898398,"description":"Aliquam quis turpis eget elit sodales scelerisque. Mauris sit amet eros. Suspendisse accumsan tortor quis turpis. Sed ante. Vivamus tortor."},
{"name":"Golf Course","city":"Guaíra","address":"7082 Morrow Trail","longitude":-48.310855,"latitude":-20.3253713,"description":"Vestibulum sed magna at nunc commodo placerat. Praesent blandit. Nam nulla. Integer pede justo, lacinia eget, tincidunt eget, tempus vel, pede. Morbi porttitor lorem id ligula."},
{"name":"Kingsford","city":"Kalisangkrah Lor","address":"519 Vidon Court","longitude":113.0396024,"latitude":-7.759054,"description":"Integer pede justo, lacinia eget, tincidunt eget, tempus vel, pede. Morbi porttitor lorem id ligula. Suspendisse ornare consequat lectus. In est risus, auctor sed, tristique in, tempus sit amet, sem. Fusce consequat."},
{"name":"Tennyson","city":"Washington","address":"0234 Marquette Circle","longitude":-77.0157837,"latitude":38.8978995,"description":"Proin interdum mauris non ligula pellentesque ultrices. Phasellus id sapien in sapien iaculis congue. Vivamus metus arcu, adipiscing molestie, hendrerit at, vulputate vitae, nisl. Aenean lectus. Pellentesque eget nunc."},
{"name":"Fremont","city":"Villa Paula de Sarmiento","address":"71 Novick Trail","longitude":-68.7998021,"latitude":-32.8842032,"description":"Nunc nisl. Duis bibendum, felis sed interdum venenatis, turpis enim blandit mi, in porttitor pede justo eu massa. Donec dapibus. Duis at velit eu est congue elementum. In hac habitasse platea dictumst."},
{"name":"Vermont","city":"Nubl","address":"82 Packers Court","longitude":36.9917125,"latitude":36.3755668,"description":"Morbi vestibulum, velit id pretium iaculis, diam erat fermentum justo, nec condimentum neque sapien placerat ante. Nulla justo. Aliquam quis turpis eget elit sodales scelerisque. Mauris sit amet eros. Suspendisse accumsan tortor quis turpis."},
{"name":"Stang","city":"Wilwerwiltz","address":"49 Ludington Park","longitude":6.0001426,"latitude":49.988694,"description":"Duis mattis egestas metus. Aenean fermentum. Donec ut mauris eget massa tempor convallis. Nulla neque libero, convallis eget, eleifend luctus, ultricies eu, nibh. Quisque id justo sit amet sapien dignissim vestibulum."},
{"name":"Ludington","city":"Hữu Lũng","address":"3 Independence Way","longitude":106.2992912,"latitude":21.5659824,"description":"Suspendisse potenti. In eleifend quam a odio. In hac habitasse platea dictumst. Maecenas ut massa quis augue luctus tincidunt. Nulla mollis molestie lorem."},
{"name":"Bay","city":"Randuagung","address":"94 Rigney Pass","longitude":113.3049491,"latitude":-8.0796655,"description":"Fusce congue, diam id ornare imperdiet, sapien urna pretium nisl, ut volutpat sapien arcu sed augue. Aliquam erat volutpat. In congue. Etiam justo. Etiam pretium iaculis justo."},
{"name":"Holmberg","city":"Beiquan","address":"3096 Northridge Point","longitude":104.46797,"latitude":31.617202,"description":"Duis aliquam convallis nunc. Proin at turpis a pede posuere nonummy. Integer non velit. Donec diam neque, vestibulum eget, vulputate ut, ultrices vel, augue. Vestibulum ante ipsum primis in faucibus orci luctus et ultrices posuere cubilia Curae; Donec pharetra, magna vestibulum aliquet ultrices, erat tortor sollicitudin mi, sit amet lobortis sapien sapien non mi."},
{"name":"Hallows","city":"Taraju","address":"20 Anzinger Trail","longitude":107.9887402,"latitude":-7.4399956,"description":"Vivamus tortor. Duis mattis egestas metus. Aenean fermentum. Donec ut mauris eget massa tempor convallis. Nulla neque libero, convallis eget, eleifend luctus, ultricies eu, nibh."},
{"name":"Bonner","city":"Guadalupe","address":"5805 Fieldstone Circle","longitude":-79.4760133,"latitude":-7.2452522,"description":"Pellentesque ultrices mattis odio. Donec vitae nisi. Nam ultrices, libero non mattis pulvinar, nulla pede ullamcorper augue, a suscipit nulla elit ac nulla. Sed vel enim sit amet nunc viverra dapibus. Nulla suscipit ligula in lacus."},
{"name":"Fuller","city":"Frederiksberg","address":"542 Ludington Plaza","longitude":12.5532982,"latitude":55.6840317,"description":"Vivamus tortor. Duis mattis egestas metus. Aenean fermentum. Donec ut mauris eget massa tempor convallis. Nulla neque libero, convallis eget, eleifend luctus, ultricies eu, nibh."},
{"name":"Nelson","city":"Chicago","address":"2 Dennis Lane","longitude":-87.62,"latitude":41.88,"description":"Integer pede justo, lacinia eget, tincidunt eget, tempus vel, pede. Morbi porttitor lorem id ligula. Suspendisse ornare consequat lectus. In est risus, auctor sed, tristique in, tempus sit amet, sem. Fusce consequat."},
{"name":"Walton","city":"Koronganayam","address":"31808 Rigney Avenue","longitude":106.9222137,"latitude":-6.2969238,"description":"Morbi a ipsum. Integer a nibh. In quis justo. Maecenas rhoncus aliquam lacus. Morbi quis tortor id nulla ultrices aliquet."},
{"name":"Portage","city":"Darungan","address":"5022 Hermina Center","longitude":112.1579249,"latitude":-7.7766561,"description":"Vivamus metus arcu, adipiscing molestie, hendrerit at, vulputate vitae, nisl. Aenean lectus. Pellentesque eget nunc. Donec quis orci eget orci vehicula condimentum. Curabitur in libero ut massa volutpat convallis."},
{"name":"Oak","city":"Çalxanqala","address":"6 Birchwood Point","longitude":45.2771033,"latitude":39.4472756,"description":"Mauris lacinia sapien quis libero. Nullam sit amet turpis elementum ligula vehicula consequat. Morbi a ipsum. Integer a nibh. In quis justo."},
{"name":"Carberry","city":"Cibolang","address":"8147 Cody Pass","longitude":106.8679899,"latitude":-6.9377422,"description":"Fusce consequat. Nulla nisl. Nunc nisl. Duis bibendum, felis sed interdum venenatis, turpis enim blandit mi, in porttitor pede justo eu massa. Donec dapibus."},
{"name":"Green","city":"Sanli","address":"4 Hudson Avenue","longitude":116.746096,"latitude":24.84662,"description":"Morbi quis tortor id nulla ultrices aliquet. Maecenas leo odio, condimentum id, luctus nec, molestie sed, justo. Pellentesque viverra pede ac diam. Cras pellentesque volutpat dui. Maecenas tristique, est et tempus semper, est quam pharetra magna, ac consequat metus sapien ut nunc."},
{"name":"Muir","city":"Utsunomiya-shi","address":"994 Di Loreto Road","longitude":139.8816085,"latitude":36.6493964,"description":"Praesent blandit. Nam nulla. Integer pede justo, lacinia eget, tincidunt eget, tempus vel, pede. Morbi porttitor lorem id ligula. Suspendisse ornare consequat lectus."},
{"name":"Talisman","city":"Hesperange","address":"43624 Fieldstone Place","longitude":6.1593027,"latitude":49.5718261,"description":"Aliquam augue quam, sollicitudin vitae, consectetuer eget, rutrum at, lorem. Integer tincidunt ante vel ipsum. Praesent blandit lacinia erat. Vestibulum sed magna at nunc commodo placerat. Praesent blandit."},
{"name":"Mallory","city":"Zepita","address":"2 Esker Drive","longitude":-69.1014935,"latitude":-16.4981761,"description":"Nulla mollis molestie lorem. Quisque ut erat. Curabitur gravida nisi at nibh. In hac habitasse platea dictumst. Aliquam augue quam, sollicitudin vitae, consectetuer eget, rutrum at, lorem."},
{"name":"Corry","city":"Kineshma","address":"6 Moose Park","longitude":42.1747981,"latitude":57.4388568,"description":"Sed sagittis. Nam congue, risus semper porta volutpat, quam pede lobortis ligula, sit amet eleifend pede libero quis orci. Nullam molestie nibh in lectus. Pellentesque at nulla. Suspendisse potenti."},
{"name":"Tennyson","city":"Clermont-Ferrand","address":"7452 Starling Center","longitude":3.1331436,"latitude":45.788378,"description":"Pellentesque viverra pede ac diam. Cras pellentesque volutpat dui. Maecenas tristique, est et tempus semper, est quam pharetra magna, ac consequat metus sapien ut nunc. Vestibulum ante ipsum primis in faucibus orci luctus et ultrices posuere cubilia Curae; Mauris viverra diam vitae quam. Suspendisse potenti."},
{"name":"Utah","city":"Carhué","address":"17 Novick Terrace","longitude":-58.4933597,"latitude":-34.6738798,"description":"Vivamus tortor. Duis mattis egestas metus. Aenean fermentum. Donec ut mauris eget massa tempor convallis. Nulla neque libero, convallis eget, eleifend luctus, ultricies eu, nibh."},
{"name":"Portage","city":"Helsingborg","address":"28 Service Pass","longitude":12.6996888,"latitude":56.0528691,"description":"In blandit ultrices enim. Lorem ipsum dolor sit amet, consectetuer adipiscing elit. Proin interdum mauris non ligula pellentesque ultrices. Phasellus id sapien in sapien iaculis congue. Vivamus metus arcu, adipiscing molestie, hendrerit at, vulputate vitae, nisl."},
{"name":"Oriole","city":"Tengah","address":"8432 Packers Road","longitude":110.1402594,"latitude":-7.150975,"description":"Phasellus sit amet erat. Nulla tempus. Vivamus in felis eu sapien cursus vestibulum. Proin eu mi. Nulla ac enim."},